[
  {
    "id": "wpi-45802",
    "name": "Agadir",
    "country": "Morocco",
    "lat": 30.433333333333334,
    "lon": -9.633333333333333,
    "type": "commercial",
    "strategicTier": 1,
    "notes": "Coastal Breakwater. Fair shelter. UN/LOCODE: MA AGA. Region: MOROCCO."
  },
  {
    "id": "wpi-45165",
    "name": "Al Iskandariyh (Alexandria)",
    "country": "Egypt",
    "lat": 31.166666666666668,
    "lon": 29.833333333333332,
    "type": "commercial",
    "strategicTier": 1,
    "notes": "Coastal Breakwater. Good shelter. UN/LOCODE: EG ALY. Region: EGYPT MEDITERRANEAN."
  },
  {
    "id": "wpi-45570",
    "name": "Alger",
    "country": "Algeria",
    "lat": 36.766666666666666,
    "lon": 3.066666666666667,
    "type": "commercial",
    "strategicTier": 1,
    "notes": "Coastal Breakwater. Excellent shelter. UN/LOCODE: DZ ALG. Region: ALGERIA."
  },
  {
    "id": "wpi-31060",
    "name": "Amsterdam",
    "country": "Netherlands",
    "lat": 52.36666666666667,
    "lon": 4.9,
    "type": "commercial",
    "strategicTier": 1,
    "notes": "Land Cutoff. Excellent shelter. UN/LOCODE: NL AMS. Region: NETHERLANDS."
  },
  {
    "id": "wpi-31250",
    "name": "Antwerpen",
    "country": "Belgium",
    "lat": 51.21666666666667,
    "lon": 4.4,
    "type": "commercial",
    "strategicTier": 1,
    "notes": "Good shelter. UN/LOCODE: BE ANR. Region: BELGIUM."
  },
  {
    "id": "wpi-48040",
    "name": "As Suways",
    "country": "Egypt",
    "lat": 29.966666666666665,
    "lon": 32.55,
    "type": "commercial",
    "strategicTier": 1,
    "notes": "Coastal Breakwater. Good shelter. UN/LOCODE: EG SUZ. Region: EGYPT RED SEA."
  },
  {
    "id": "wpi-55060",
    "name": "Auckland",
    "country": "New Zealand",
    "lat": -36.85,
    "lon": 174.76666666666668,
    "type": "commercial",
    "strategicTier": 1,
    "notes": "River, Natural. Excellent shelter. UN/LOCODE: NZ AKL. Region: NEW ZEALAND N ISLAND."
  },
  {
    "id": "wpi-8210",
    "name": "Baltimore",
    "country": "United States",
    "lat": 39.266666666666666,
    "lon": -76.58333333333333,
    "type": "commercial",
    "strategicTier": 1,
    "notes": "River, Natural. Good shelter. UN/LOCODE: US BAL. Region: UNITED STATES E COAST."
  },
  {
    "id": "wpi-57450",
    "name": "Bangkok",
    "country": "Thailand",
    "lat": 13.75,
    "lon": 100.5,
    "type": "commercial",
    "strategicTier": 1,
    "notes": "River, Natural. Good shelter. UN/LOCODE: TH BKK. Region: THAILAND."
  },
  {
    "id": "wpi-38550",
    "name": "Barcelona",
    "country": "Spain",
    "lat": 41.35,
    "lon": 2.1666666666666665,
    "type": "commercial",
    "strategicTier": 1,
    "notes": "Coastal Breakwater. Good shelter. UN/LOCODE: ES BCN. Region: SPAIN SE COAST."
  },
  {
    "id": "wpi-33770",
    "name": "Belfast",
    "country": "United Kingdom",
    "lat": 54.61666666666667,
    "lon": -5.9,
    "type": "commercial",
    "strategicTier": 1,
    "notes": "Excellent shelter. UN/LOCODE: GB BEL. Region: NORTHERN IRELAND."
  },
  {
    "id": "wpi-37190",
    "name": "Bordeaux",
    "country": "France",
    "lat": 44.86666666666667,
    "lon": -0.5666666666666667,
    "type": "commercial",
    "strategicTier": 1,
    "notes": "Excellent shelter. UN/LOCODE: FR BOD. Region: FRANCE WEST COAST."
  },
  {
    "id": "wpi-7250",
    "name": "Boston",
    "country": "United States",
    "lat": 42.35,
    "lon": -71.05,
    "type": "commercial",
    "strategicTier": 1,
    "notes": "Canal. Excellent shelter. UN/LOCODE: US BOS. Region: UNITED STATES E COAST."
  },
  {
    "id": "wpi-30900",
    "name": "Bremen",
    "country": "Germany",
    "lat": 53.13333333333333,
    "lon": 8.766666666666667,
    "type": "commercial",
    "strategicTier": 1,
    "notes": "Fair shelter. UN/LOCODE: DE BRE. Region: GERMANY."
  },
  {
    "id": "wpi-30810",
    "name": "Bremerhaven",
    "country": "Germany",
    "lat": 53.53333333333333,
    "lon": 8.583333333333334,
    "type": "commercial",
    "strategicTier": 1,
    "notes": "Excellent shelter. UN/LOCODE: DE BRV. Region: GERMANY."
  },
  {
    "id": "wpi-40500",
    "name": "Brindisi",
    "country": "Italy",
    "lat": 40.65,
    "lon": 17.983333333333334,
    "type": "commercial",
    "strategicTier": 1,
    "notes": "Coastal Breakwater. Fair shelter. UN/LOCODE: IT BDS. Region: ITALY EAST COAST."
  },
  {
    "id": "wpi-7630",
    "name": "Brooklyn",
    "country": "United States",
    "lat": 40.666666666666664,
    "lon": -74.01666666666667,
    "type": "commercial",
    "strategicTier": 1,
    "notes": "River, Natural. Excellent shelter. UN/LOCODE: US BOY. Region: UNITED STATES E COAST."
  },
  {
    "id": "wpi-13760",
    "name": "Buenos Aires",
    "country": "Argentina",
    "lat": -34.6,
    "lon": -58.36666666666667,
    "type": "commercial",
    "strategicTier": 1,
    "notes": "Coastal Breakwater. Excellent shelter. UN/LOCODE: AR BUE. Region: ARGENTINA."
  },
  {
    "id": "wpi-3430",
    "name": "Buffalo",
    "country": "United States",
    "lat": 42.88333333333333,
    "lon": -78.88333333333334,
    "type": "commercial",
    "strategicTier": 1,
    "notes": "Coastal Breakwater. Excellent shelter. UN/LOCODE: US BUF. Region: US LAKE ERIE."
  },
  {
    "id": "wpi-45140",
    "name": "Bur Sa'id",
    "country": "Egypt",
    "lat": 31.266666666666666,
    "lon": 32.3,
    "type": "commercial",
    "strategicTier": 1,
    "notes": "Land Cutoff. Excellent shelter. UN/LOCODE: EG PSD. Region: EGYPT MEDITERRANEAN."
  },
  {
    "id": "wpi-60390",
    "name": "Busan",
    "country": "Korea, South",
    "lat": 35.1,
    "lon": 129.03333333333333,
    "type": "commercial",
    "strategicTier": 1,
    "notes": "Coastal Breakwater. Excellent shelter. UN/LOCODE: KR PUS. Region: SOUTH KOREA."
  },
  {
    "id": "wpi-6545",
    "name": "Canaport (St. John)",
    "country": "Canada",
    "lat": 45.2,
    "lon": -65.98333333333333,
    "type": "commercial",
    "strategicTier": 1,
    "notes": "Open Roadstead. Good shelter. UN/LOCODE: CA CPT. Region: NOVA SCOTIA CONT."
  },
  {
    "id": "wpi-46770",
    "name": "Cape Town",
    "country": "South Africa",
    "lat": -33.916666666666664,
    "lon": 18.416666666666668,
    "type": "commercial",
    "strategicTier": 1,
    "notes": "Coastal Breakwater. Good shelter. UN/LOCODE: ZA CPT. Region: SOUTH AFRICA."
  },
  {
    "id": "wpi-45793",
    "name": "Casablanca",
    "country": "Morocco",
    "lat": 33.6,
    "lon": -7.616666666666667,
    "type": "commercial",
    "strategicTier": 1,
    "notes": "Coastal Breakwater. Excellent shelter. UN/LOCODE: MA CAS. Region: MOROCCO."
  },
  {
    "id": "wpi-58960",
    "name": "Cebu",
    "country": "Philippines",
    "lat": 10.3,
    "lon": 123.9,
    "type": "commercial",
    "strategicTier": 1,
    "notes": "Coastal Breakwater. Excellent shelter. UN/LOCODE: PH CEB. Region: PHILIPPINE ISLANDS."
  },
  {
    "id": "wpi-8080",
    "name": "Chester",
    "country": "United States",
    "lat": 39.85,
    "lon": -75.35,
    "type": "commercial",
    "strategicTier": 1,
    "notes": "River, Natural. Good shelter. UN/LOCODE: US CHT. Region: UNITED STATES E COAST."
  },
  {
    "id": "wpi-57890",
    "name": "Chi-Lung",
    "country": "Taiwan",
    "lat": 25.133333333333333,
    "lon": 121.76666666666667,
    "type": "commercial",
    "strategicTier": 1,
    "notes": "Coastal Breakwater. Good shelter. UN/LOCODE: TW KEL. Region: TAIWAN."
  },
  {
    "id": "wpi-51220",
    "name": "Cilacap",
    "country": "Indonesia",
    "lat": -7.733333333333333,
    "lon": 109,
    "type": "commercial",
    "strategicTier": 1,
    "notes": "Canal. Excellent shelter. UN/LOCODE: ID CXP. Region: JAWA."
  },
  {
    "id": "wpi-39810",
    "name": "Civitavecchia",
    "country": "Italy",
    "lat": 42.102000000000004,
    "lon": 11.771,
    "type": "commercial",
    "strategicTier": 1,
    "notes": "Coastal Breakwater. Fair shelter. UN/LOCODE: IT CVV. Region: ITALY WEST COAST CONT."
  },
  {
    "id": "wpi-3490",
    "name": "Cleveland",
    "country": "United States",
    "lat": 41.5,
    "lon": -81.71666666666667,
    "type": "commercial",
    "strategicTier": 1,
    "notes": "Coastal Breakwater. Excellent shelter. UN/LOCODE: US CLE. Region: US LAKE ERIE."
  },
  {
    "id": "wpi-60250",
    "name": "Dalian",
    "country": "China",
    "lat": 38.916666666666664,
    "lon": 121.66666666666667,
    "type": "commercial",
    "strategicTier": 1,
    "notes": "Coastal Breakwater. Good shelter. UN/LOCODE: CN DAL. Region: CHINA CONTINUED."
  },
  {
    "id": "wpi-45151",
    "name": "Damietta",
    "country": "Egypt",
    "lat": 31.483333333333334,
    "lon": 31.75,
    "type": "commercial",
    "strategicTier": 1,
    "notes": "Coastal Breakwater. Good shelter. UN/LOCODE: EG DAM. Region: EGYPT MEDITERRANEAN."
  },
  {
    "id": "wpi-3620",
    "name": "Detroit",
    "country": "United States",
    "lat": 42.333333333333336,
    "lon": -83.03333333333333,
    "type": "commercial",
    "strategicTier": 1,
    "notes": "River, Natural. Excellent shelter. UN/LOCODE: US DET. Region: US LAKE ERIE."
  },
  {
    "id": "wpi-32170",
    "name": "Dundee",
    "country": "United Kingdom",
    "lat": 56.46666666666667,
    "lon": -2.95,
    "type": "commercial",
    "strategicTier": 1,
    "notes": "Excellent shelter. UN/LOCODE: GB DUN. Region: SCOTLAND EAST COAST."
  },
  {
    "id": "wpi-46850",
    "name": "Durban",
    "country": "South Africa",
    "lat": -29.866666666666667,
    "lon": 31.066666666666666,
    "type": "commercial",
    "strategicTier": 1,
    "notes": "Coastal Breakwater. Excellent shelter. UN/LOCODE: ZA DUR. Region: SOUTH AFRICA."
  },
  {
    "id": "wpi-34130",
    "name": "Foynes",
    "country": "Ireland",
    "lat": 52.61666666666667,
    "lon": -9.116666666666667,
    "type": "commercial",
    "strategicTier": 1,
    "notes": "River, Natural. Good shelter. UN/LOCODE: IE FOV. Region: IRELAND."
  },
  {
    "id": "wpi-54520",
    "name": "Fremantle",
    "country": "Australia",
    "lat": -32.05,
    "lon": 115.75,
    "type": "commercial",
    "strategicTier": 1,
    "notes": "Coastal Breakwater. Good shelter. UN/LOCODE: AU FRE. Region: AUSTRALIA."
  },
  {
    "id": "wpi-38130",
    "name": "Funchal",
    "country": "Portugal",
    "lat": 32.63333333333333,
    "lon": -16.916666666666668,
    "type": "commercial",
    "strategicTier": 1,
    "notes": "Coastal Breakwater. Excellent shelter. UN/LOCODE: PT FNC. Region: ARQUIPELAGO DA MADEIRA."
  },
  {
    "id": "wpi-9150",
    "name": "Galveston",
    "country": "United States",
    "lat": 29.316666666666666,
    "lon": -94.78333333333333,
    "type": "commercial",
    "strategicTier": 1,
    "notes": "Canal. Good shelter. UN/LOCODE: US GLS. Region: US GULF COAST."
  },
  {
    "id": "wpi-28710",
    "name": "Gdansk",
    "country": "Poland",
    "lat": 54.35,
    "lon": 18.666666666666668,
    "type": "commercial",
    "strategicTier": 1,
    "notes": "Land Cutoff. Excellent shelter. UN/LOCODE: PL GDN. Region: POLAND."
  },
  {
    "id": "wpi-28740",
    "name": "Gdynia",
    "country": "Poland",
    "lat": 54.53333333333333,
    "lon": 18.55,
    "type": "commercial",
    "strategicTier": 1,
    "notes": "Coastal Breakwater. Good shelter. UN/LOCODE: PL GDY. Region: POLAND."
  },
  {
    "id": "wpi-39470",
    "name": "Genova",
    "country": "Italy",
    "lat": 44.397999999999996,
    "lon": 8.921999999999999,
    "type": "commercial",
    "strategicTier": 1,
    "notes": "Coastal Breakwater. Excellent shelter. UN/LOCODE: IT GOA. Region: ITALY WEST COAST."
  },
  {
    "id": "wpi-40115",
    "name": "Gioia Tauro",
    "country": "Italy",
    "lat": 38.443999999999996,
    "lon": 15.889999999999999,
    "type": "commercial",
    "strategicTier": 1,
    "notes": "Land Cutoff. Fair shelter. UN/LOCODE: IT GIT. Region: SICILIA."
  },
  {
    "id": "wpi-6340",
    "name": "Halifax",
    "country": "Canada",
    "lat": 44.65,
    "lon": -63.583333333333336,
    "type": "commercial",
    "strategicTier": 1,
    "notes": "Canal. Excellent shelter. UN/LOCODE: CA HAL. Region: NOVA SCOTIA CONT."
  },
  {
    "id": "wpi-30780",
    "name": "Hamburg",
    "country": "Germany",
    "lat": 53.55,
    "lon": 9.933333333333334,
    "type": "commercial",
    "strategicTier": 1,
    "notes": "Land Cutoff. Excellent shelter. UN/LOCODE: DE HAM. Region: GERMANY."
  },
  {
    "id": "wpi-57840",
    "name": "Hong Kong",
    "country": "Hong Kong",
    "lat": 22.266666666666666,
    "lon": 114.2,
    "type": "commercial",
    "strategicTier": 1,
    "notes": "Canal. Excellent shelter. UN/LOCODE: HK HKG. Region: HONG KONG."
  },
  {
    "id": "wpi-9240",
    "name": "Houston",
    "country": "United States",
    "lat": 29.75,
    "lon": -95.28333333333333,
    "type": "commercial",
    "strategicTier": 1,
    "notes": "Good shelter. UN/LOCODE: US HOU. Region: US GULF COAST."
  },
  {
    "id": "wpi-43645",
    "name": "Illichivsk",
    "country": "Ukraine",
    "lat": 46.3,
    "lon": 30.65,
    "type": "commercial",
    "strategicTier": 1,
    "notes": "Coastal Breakwater. Good shelter. UN/LOCODE: UA ILK. Region: UKRAINE."
  },
  {
    "id": "wpi-60320",
    "name": "Inchon",
    "country": "Korea, South",
    "lat": 37.46666666666667,
    "lon": 126.61666666666666,
    "type": "commercial",
    "strategicTier": 1,
    "notes": "Good shelter. UN/LOCODE: KR INC. Region: SOUTH KOREA."
  },
  {
    "id": "wpi-43420",
    "name": "Istanbul",
    "country": "Turkey",
    "lat": 41.016666666666666,
    "lon": 28.966666666666665,
    "type": "commercial",
    "strategicTier": 1,
    "notes": "Land Cutoff. Fair shelter. UN/LOCODE: TR IST. Region: TURKEY EUROPE."
  },
  {
    "id": "wpi-44750",
    "name": "Izmir",
    "country": "Turkey",
    "lat": 38.43333333333333,
    "lon": 27.133333333333333,
    "type": "commercial",
    "strategicTier": 1,
    "notes": "Canal. Fair shelter. UN/LOCODE: TR IZM. Region: TURKEY ASIA."
  },
  {
    "id": "wpi-50970",
    "name": "Jakarta",
    "country": "Indonesia",
    "lat": -6.1,
    "lon": 106.88333333333334,
    "type": "commercial",
    "strategicTier": 1,
    "notes": "Coastal Breakwater. Excellent shelter. UN/LOCODE: ID JKT. Region: JAWA."
  },
  {
    "id": "wpi-46690",
    "name": "Jamestown",
    "country": "Saint Helena, Ascension, And Tristan Da Cunha",
    "lat": -15.916666666666666,
    "lon": -5.716666666666667,
    "type": "commercial",
    "strategicTier": 1,
    "notes": "Open Roadstead. Poor shelter. UN/LOCODE: SH SHN. Region: ASCENSION."
  },
  {
    "id": "wpi-49982",
    "name": "Johor",
    "country": "Malaysia",
    "lat": 1.4333333333333333,
    "lon": 103.9,
    "type": "commercial",
    "strategicTier": 1,
    "notes": "River, Natural. Fair shelter. UN/LOCODE: MY JHB. Region: MALAYSIA."
  },
  {
    "id": "wpi-50017",
    "name": "Jurong Island",
    "country": "Singapore",
    "lat": 1.2833333333333332,
    "lon": 103.73333333333333,
    "type": "commercial",
    "strategicTier": 1,
    "notes": "Canal. Good shelter. UN/LOCODE: SG JUR. Region: SINGAPORE."
  },
  {
    "id": "wpi-53045",
    "name": "Kasim Terminal",
    "country": "Indonesia",
    "lat": -1.3,
    "lon": 131.01666666666668,
    "type": "oil-terminal",
    "strategicTier": 1,
    "notes": "Open Roadstead. Poor shelter. UN/LOCODE: ID KAS. Region: NEW GUINEA WEST COAST - IRIAN JAYA."
  },
  {
    "id": "wpi-61385",
    "name": "Kawasaki Ko",
    "country": "Japan",
    "lat": 35.5,
    "lon": 139.76666666666668,
    "type": "commercial",
    "strategicTier": 1,
    "notes": "Coastal Breakwater. Good shelter. UN/LOCODE: JP KWS. Region: JAPAN."
  },
  {
    "id": "wpi-50000",
    "name": "Keppel - (East Singapore)",
    "country": "Singapore",
    "lat": 1.2833333333333332,
    "lon": 103.85,
    "type": "commercial",
    "strategicTier": 1,
    "notes": "Canal. Good shelter. UN/LOCODE: SG KEP. Region: SINGAPORE."
  },
  {
    "id": "wpi-61560",
    "name": "Kobe",
    "country": "Japan",
    "lat": 34.65,
    "lon": 135.18333333333334,
    "type": "commercial",
    "strategicTier": 1,
    "notes": "Open Roadstead. Good shelter. UN/LOCODE: JP UKB. Region: JAPAN."
  },
  {
    "id": "wpi-39520",
    "name": "La Spezia",
    "country": "Italy",
    "lat": 44.1,
    "lon": 9.833333333333334,
    "type": "commercial",
    "strategicTier": 1,
    "notes": "Coastal Breakwater. Good shelter. UN/LOCODE: IT SPE. Region: ITALY WEST COAST."
  },
  {
    "id": "wpi-38010",
    "name": "Lagos",
    "country": "Portugal",
    "lat": 37.1,
    "lon": -8.616666666666667,
    "type": "commercial",
    "strategicTier": 1,
    "notes": "UN/LOCODE: PT LOS. Region: PORTUGAL."
  },
  {
    "id": "wpi-46130",
    "name": "Lagos",
    "country": "Nigeria",
    "lat": 6.4,
    "lon": 3.4,
    "type": "commercial",
    "strategicTier": 1,
    "notes": "River, Natural. Good shelter. UN/LOCODE: NG LOS. Region: NIGERIA."
  },
  {
    "id": "wpi-38170",
    "name": "Las Palmas",
    "country": "Spain",
    "lat": 28.15,
    "lon": -15.416666666666666,
    "type": "commercial",
    "strategicTier": 1,
    "notes": "Coastal Breakwater. Good shelter. UN/LOCODE: ES LPA. Region: ISLAS CANARIAS."
  },
  {
    "id": "wpi-37990",
    "name": "Lisboa",
    "country": "Portugal",
    "lat": 38.7,
    "lon": -9.166666666666666,
    "type": "commercial",
    "strategicTier": 1,
    "notes": "River, Natural. Excellent shelter. UN/LOCODE: PT LIS. Region: PORTUGAL."
  },
  {
    "id": "wpi-34690",
    "name": "Liverpool",
    "country": "United Kingdom",
    "lat": 53.416666666666664,
    "lon": -3,
    "type": "commercial",
    "strategicTier": 1,
    "notes": "Excellent shelter. UN/LOCODE: GB LIV. Region: ENGLAND WEST COAST."
  },
  {
    "id": "wpi-39590",
    "name": "Livorno",
    "country": "Italy",
    "lat": 43.542,
    "lon": 10.29,
    "type": "commercial",
    "strategicTier": 1,
    "notes": "Coastal Breakwater. Good shelter. UN/LOCODE: IT LIV. Region: ITALY WEST COAST."
  },
  {
    "id": "wpi-57775",
    "name": "Lon Shui Terminal",
    "country": "China",
    "lat": 20.833333333333332,
    "lon": 115.68333333333334,
    "type": "oil-terminal",
    "strategicTier": 1,
    "notes": "Open Roadstead. Poor shelter. Region: CHINA."
  },
  {
    "id": "wpi-31470",
    "name": "London",
    "country": "United Kingdom",
    "lat": 51.5,
    "lon": -0.08333333333333333,
    "type": "commercial",
    "strategicTier": 1,
    "notes": "Excellent shelter. UN/LOCODE: GB LON. Region: ENGLAND EAST COAST."
  },
  {
    "id": "wpi-8980",
    "name": "Loop Terminal",
    "country": "United States",
    "lat": 28.883333333333333,
    "lon": -90.01666666666667,
    "type": "oil-terminal",
    "strategicTier": 1,
    "notes": "Open Roadstead. Fair shelter. UN/LOCODE: US LO9. Region: US GULF COAST."
  },
  {
    "id": "wpi-16080",
    "name": "Los Angeles",
    "country": "United States",
    "lat": 33.75,
    "lon": -118.25,
    "type": "commercial",
    "strategicTier": 1,
    "notes": "Coastal Breakwater. Excellent shelter. UN/LOCODE: US LAX. Region: UNITED STATES W COAST."
  },
  {
    "id": "wpi-34700",
    "name": "Manchester",
    "country": "United Kingdom",
    "lat": 53.483333333333334,
    "lon": -2.2666666666666666,
    "type": "commercial",
    "strategicTier": 1,
    "notes": "Excellent shelter. UN/LOCODE: GB MNC. Region: ENGLAND WEST COAST."
  },
  {
    "id": "wpi-58370",
    "name": "Manila",
    "country": "Philippines",
    "lat": 14.583333333333334,
    "lon": 120.96666666666667,
    "type": "commercial",
    "strategicTier": 1,
    "notes": "Coastal Breakwater. Excellent shelter. UN/LOCODE: PH MNL. Region: PHILIPPINE ISLANDS."
  },
  {
    "id": "wpi-40100",
    "name": "Messina",
    "country": "Italy",
    "lat": 38.2,
    "lon": 15.566666666666666,
    "type": "commercial",
    "strategicTier": 1,
    "notes": "Coastal Breakwater. Excellent shelter. UN/LOCODE: IT MSN. Region: SICILIA."
  },
  {
    "id": "wpi-61465",
    "name": "Mikawa",
    "country": "Japan",
    "lat": 34.71666666666667,
    "lon": 137.3,
    "type": "commercial",
    "strategicTier": 1,
    "notes": "Coastal Breakwater. Good shelter. UN/LOCODE: JP MKW. Region: JAPAN."
  },
  {
    "id": "wpi-8770",
    "name": "Mobile",
    "country": "United States",
    "lat": 30.683333333333334,
    "lon": -88.11666666666666,
    "type": "commercial",
    "strategicTier": 1,
    "notes": "River, Natural. Excellent shelter. UN/LOCODE: US MOB. Region: US GULF COAST."
  },
  {
    "id": "wpi-2235",
    "name": "Montreal",
    "country": "Canada",
    "lat": 45.516666666666666,
    "lon": -73.55,
    "type": "commercial",
    "strategicTier": 1,
    "notes": "River, Natural. Good shelter. UN/LOCODE: CA MTR. Region: CANADA ST LAWRENCE R."
  },
  {
    "id": "wpi-47160",
    "name": "Muqdisho",
    "country": "Somalia",
    "lat": 2.033333333333333,
    "lon": 45.35,
    "type": "commercial",
    "strategicTier": 1,
    "notes": "Coastal Breakwater. Fair shelter. UN/LOCODE: SO MGQ. Region: SOMALIA."
  },
  {
    "id": "wpi-62950",
    "name": "Murmansk",
    "country": "Russia",
    "lat": 68.98333333333333,
    "lon": 33.05,
    "type": "commercial",
    "strategicTier": 1,
    "notes": "River, Natural. Good shelter. UN/LOCODE: RU MMK. Region: RUSSIA."
  },
  {
    "id": "wpi-62360",
    "name": "Nagasaki",
    "country": "Japan",
    "lat": 32.71666666666667,
    "lon": 129.85,
    "type": "commercial",
    "strategicTier": 1,
    "notes": "Canal. Fair shelter. UN/LOCODE: JP NGS. Region: JAPAN."
  },
  {
    "id": "wpi-61480",
    "name": "Nagoya Ko",
    "country": "Japan",
    "lat": 35.06666666666667,
    "lon": 136.86666666666667,
    "type": "commercial",
    "strategicTier": 1,
    "notes": "Coastal Breakwater. Good shelter. UN/LOCODE: JP NGO. Region: JAPAN."
  },
  {
    "id": "wpi-39960",
    "name": "Napoli",
    "country": "Italy",
    "lat": 40.833000000000006,
    "lon": 14.275,
    "type": "commercial",
    "strategicTier": 1,
    "notes": "Coastal Breakwater. Excellent shelter. UN/LOCODE: IT NAP. Region: ITALY WEST COAST CONT."
  },
  {
    "id": "wpi-8860",
    "name": "New Orleans",
    "country": "United States",
    "lat": 29.95,
    "lon": -90.05,
    "type": "commercial",
    "strategicTier": 1,
    "notes": "River, Natural. Excellent shelter. UN/LOCODE: US MSY. Region: US GULF COAST."
  },
  {
    "id": "wpi-7640",
    "name": "New York City",
    "country": "United States",
    "lat": 40.7,
    "lon": -74.01666666666667,
    "type": "commercial",
    "strategicTier": 1,
    "notes": "River, Natural. Excellent shelter. UN/LOCODE: US NYC. Region: UNITED STATES E COAST."
  },
  {
    "id": "wpi-8280",
    "name": "Norfolk",
    "country": "United States",
    "lat": 36.85,
    "lon": -76.3,
    "type": "commercial",
    "strategicTier": 1,
    "notes": "River, Natural. Excellent shelter. UN/LOCODE: US ORF. Region: UNITED STATES E COAST."
  },
  {
    "id": "wpi-44200",
    "name": "Novorossiysk",
    "country": "Russia",
    "lat": 44.71666666666667,
    "lon": 37.78333333333333,
    "type": "commercial",
    "strategicTier": 1,
    "notes": "Coastal Breakwater. Good shelter. UN/LOCODE: RU NVS. Region: RUSSIA."
  },
  {
    "id": "wpi-16340",
    "name": "Oakland",
    "country": "United States",
    "lat": 37.81666666666667,
    "lon": -122.33333333333333,
    "type": "commercial",
    "strategicTier": 1,
    "notes": "Canal. Excellent shelter. UN/LOCODE: US OAK. Region: UNITED STATES W COAST."
  },
  {
    "id": "wpi-43650",
    "name": "Odesa",
    "country": "Ukraine",
    "lat": 46.483333333333334,
    "lon": 30.733333333333334,
    "type": "commercial",
    "strategicTier": 1,
    "notes": "Coastal Breakwater. Good shelter. UN/LOCODE: UA ODS. Region: UKRAINE."
  },
  {
    "id": "wpi-61630",
    "name": "Onomichi-Itozaki",
    "country": "Japan",
    "lat": 34.38333333333333,
    "lon": 133.16666666666666,
    "type": "commercial",
    "strategicTier": 1,
    "notes": "Canal. Good shelter. UN/LOCODE: JP ONX. Region: JAPAN."
  },
  {
    "id": "wpi-45640",
    "name": "Oran",
    "country": "Algeria",
    "lat": 35.7,
    "lon": -0.6333333333333333,
    "type": "commercial",
    "strategicTier": 1,
    "notes": "Coastal Breakwater. Excellent shelter. UN/LOCODE: DZ ORN. Region: ALGERIA."
  },
  {
    "id": "wpi-61550",
    "name": "Osaka",
    "country": "Japan",
    "lat": 34.65,
    "lon": 135.43333333333334,
    "type": "commercial",
    "strategicTier": 1,
    "notes": "Coastal Breakwater. Good shelter. UN/LOCODE: JP OSA. Region: JAPAN."
  },
  {
    "id": "wpi-8110",
    "name": "Philadelphia",
    "country": "United States",
    "lat": 39.95,
    "lon": -75.13333333333334,
    "type": "commercial",
    "strategicTier": 1,
    "notes": "River, Natural. Good shelter. UN/LOCODE: US PHL. Region: UNITED STATES E COAST."
  },
  {
    "id": "wpi-42230",
    "name": "Piraievs",
    "country": "Greece",
    "lat": 37.93333333333333,
    "lon": 23.65,
    "type": "commercial",
    "strategicTier": 1,
    "notes": "Coastal Breakwater. Excellent shelter. UN/LOCODE: GR PIR. Region: GREECE EAST COAST."
  },
  {
    "id": "wpi-27740",
    "name": "Pori",
    "country": "Finland",
    "lat": 61.483333333333334,
    "lon": 21.8,
    "type": "commercial",
    "strategicTier": 1,
    "notes": "Canal. Good shelter. UN/LOCODE: FI POR. Region: FINLAND."
  },
  {
    "id": "wpi-49930",
    "name": "Port Klang",
    "country": "Malaysia",
    "lat": 3,
    "lon": 101.4,
    "type": "commercial",
    "strategicTier": 1,
    "notes": "Canal. Good shelter. UN/LOCODE: MY PKG. Region: MALAYSIA."
  },
  {
    "id": "wpi-35840",
    "name": "Port Of Le Havre",
    "country": "France",
    "lat": 49.483333333333334,
    "lon": 0.11666666666666667,
    "type": "commercial",
    "strategicTier": 1,
    "notes": "Excellent shelter. UN/LOCODE: FR LEH. Region: FRANCE NW COAST."
  },
  {
    "id": "wpi-35850",
    "name": "Port Of Rouen",
    "country": "France",
    "lat": 49.45,
    "lon": 1.0666666666666667,
    "type": "commercial",
    "strategicTier": 1,
    "notes": "River, Natural. Excellent shelter. UN/LOCODE: FR URO. Region: FRANCE NW COAST."
  },
  {
    "id": "wpi-16940",
    "name": "Portland",
    "country": "United States",
    "lat": 45.516666666666666,
    "lon": -122.66666666666667,
    "type": "commercial",
    "strategicTier": 1,
    "notes": "River, Natural. Excellent shelter. UN/LOCODE: US PDX. Region: UNITED STATES W COAST."
  },
  {
    "id": "wpi-40760",
    "name": "Porto Di Lido-Venezia",
    "country": "Italy",
    "lat": 45.416666666666664,
    "lon": 12.433333333333334,
    "type": "commercial",
    "strategicTier": 1,
    "notes": "Coastal Breakwater. Good shelter. UN/LOCODE: IT VCE. Region: ITALY EAST COAST."
  },
  {
    "id": "wpi-60140",
    "name": "Qingdao Gang",
    "country": "China",
    "lat": 36.03333333333333,
    "lon": 120.26666666666667,
    "type": "commercial",
    "strategicTier": 1,
    "notes": "Open Roadstead. Excellent shelter. UN/LOCODE: CN QIN. Region: CHINA CONTINUED."
  },
  {
    "id": "wpi-36460",
    "name": "Rade De Brest",
    "country": "France",
    "lat": 48.38333333333333,
    "lon": -4.5,
    "type": "military",
    "strategicTier": 1,
    "notes": "Coastal Breakwater. Excellent shelter. UN/LOCODE: FR BES. Region: FRANCE WEST COAST."
  },
  {
    "id": "wpi-35950",
    "name": "Rade De Cherbourg",
    "country": "France",
    "lat": 49.65,
    "lon": -1.6333333333333333,
    "type": "commercial",
    "strategicTier": 1,
    "notes": "Canal with Tide. Good shelter. UN/LOCODE: FR CER. Region: FRANCE NW COAST."
  },
  {
    "id": "wpi-48155",
    "name": "Ras Isa Marine Terminal",
    "country": "Yemen",
    "lat": 15.133333333333333,
    "lon": 42.6,
    "type": "oil-terminal",
    "strategicTier": 1,
    "notes": "UN/LOCODE: YE RAI. Region: YEMEN ADEN."
  },
  {
    "id": "wpi-28610",
    "name": "Riga",
    "country": "Latvia",
    "lat": 56.95,
    "lon": 24.1,
    "type": "commercial",
    "strategicTier": 1,
    "notes": "River, Natural. Fair shelter. UN/LOCODE: LV RIX. Region: LATVIA."
  },
  {
    "id": "wpi-41010",
    "name": "Rijeka Luka",
    "country": "Croatia",
    "lat": 45.333333333333336,
    "lon": 14.433333333333334,
    "type": "commercial",
    "strategicTier": 1,
    "notes": "Good shelter. UN/LOCODE: HR RJK. Region: CROATIA."
  },
  {
    "id": "wpi-12920",
    "name": "Rio De Janeiro",
    "country": "Brazil",
    "lat": -22.9,
    "lon": -43.166666666666664,
    "type": "commercial",
    "strategicTier": 1,
    "notes": "Canal. Excellent shelter. UN/LOCODE: BR RIO. Region: BRAZIL SE COAST."
  },
  {
    "id": "wpi-13060",
    "name": "Rio Grande",
    "country": "Brazil",
    "lat": -32.05,
    "lon": -52.083333333333336,
    "type": "commercial",
    "strategicTier": 1,
    "notes": "River, Natural. Good shelter. UN/LOCODE: BR RIG. Region: BRAZIL SE COAST."
  },
  {
    "id": "wpi-31140",
    "name": "Rotterdam",
    "country": "Netherlands",
    "lat": 51.9,
    "lon": 4.483333333333333,
    "type": "commercial",
    "strategicTier": 1,
    "notes": "Fair shelter. UN/LOCODE: NL RTM. Region: NETHERLANDS."
  },
  {
    "id": "wpi-44450",
    "name": "Samsun",
    "country": "Turkey",
    "lat": 41.3,
    "lon": 36.35,
    "type": "commercial",
    "strategicTier": 1,
    "notes": "Coastal Breakwater. Fair shelter. UN/LOCODE: TR SSX. Region: TURKEY ASIA."
  },
  {
    "id": "wpi-16300",
    "name": "San Francisco",
    "country": "United States",
    "lat": 37.81666666666667,
    "lon": -122.41666666666667,
    "type": "commercial",
    "strategicTier": 1,
    "notes": "Canal. Excellent shelter. UN/LOCODE: US SFO. Region: UNITED STATES W COAST."
  },
  {
    "id": "wpi-28370",
    "name": "Sankt-Peterburg",
    "country": "Russia",
    "lat": 59.93333333333333,
    "lon": 30.3,
    "type": "commercial",
    "strategicTier": 1,
    "notes": "Coastal Breakwater. Good shelter. UN/LOCODE: RU LED. Region: RUSSIA."
  },
  {
    "id": "wpi-12970",
    "name": "Santos",
    "country": "Brazil",
    "lat": -23.95,
    "lon": -46.3,
    "type": "commercial",
    "strategicTier": 1,
    "notes": "Canal. Good shelter. UN/LOCODE: BR SSZ. Region: BRAZIL SE COAST."
  },
  {
    "id": "wpi-17730",
    "name": "Seattle",
    "country": "United States",
    "lat": 47.6,
    "lon": -122.33333333333333,
    "type": "commercial",
    "strategicTier": 1,
    "notes": "Canal. Excellent shelter. UN/LOCODE: US SEA. Region: UNITED STATES W COAST."
  },
  {
    "id": "wpi-43760",
    "name": "Sevastopol",
    "country": "Ukraine",
    "lat": 44.61666666666667,
    "lon": 33.53333333333333,
    "type": "commercial",
    "strategicTier": 1,
    "notes": "Canal. Good shelter. UN/LOCODE: UA SVP. Region: UKRAINE."
  },
  {
    "id": "wpi-59970",
    "name": "Shanghai",
    "country": "China",
    "lat": 31.216666666666665,
    "lon": 121.5,
    "type": "commercial",
    "strategicTier": 1,
    "notes": "River, Natural. Good shelter. UN/LOCODE: CN SGH. Region: CHINA CONTINUED."
  },
  {
    "id": "wpi-40240",
    "name": "Siracusa",
    "country": "Italy",
    "lat": 37.05,
    "lon": 15.283333333333333,
    "type": "commercial",
    "strategicTier": 1,
    "notes": "Coastal Breakwater. Good shelter. UN/LOCODE: IT SIR. Region: SICILIA."
  },
  {
    "id": "wpi-35580",
    "name": "Southampton",
    "country": "United Kingdom",
    "lat": 50.9,
    "lon": -1.4,
    "type": "commercial",
    "strategicTier": 1,
    "notes": "Excellent shelter. UN/LOCODE: GB SOU. Region: ENGLAND SOUTH COAST."
  },
  {
    "id": "wpi-41320",
    "name": "Split",
    "country": "Croatia",
    "lat": 43.5,
    "lon": 16.433333333333334,
    "type": "commercial",
    "strategicTier": 1,
    "notes": "Coastal Breakwater. Good shelter. UN/LOCODE: HR SPU. Region: CROATIA."
  },
  {
    "id": "wpi-25380",
    "name": "Stockholm",
    "country": "Sweden",
    "lat": 59.333333333333336,
    "lon": 18.05,
    "type": "commercial",
    "strategicTier": 1,
    "notes": "Coastal Breakwater. Good shelter. UN/LOCODE: SE STO. Region: SWEDEN CONT."
  },
  {
    "id": "wpi-45753",
    "name": "Tangier-Mediterranean",
    "country": "Morocco",
    "lat": 35.9,
    "lon": -5.516666666666667,
    "type": "commercial",
    "strategicTier": 1,
    "notes": "Coastal Breakwater. Good shelter. UN/LOCODE: MA PTM. Region: MOROCCO."
  },
  {
    "id": "wpi-57425",
    "name": "Tapis Marine Terminal A",
    "country": "Malaysia",
    "lat": 5.516666666666667,
    "lon": 105.01666666666667,
    "type": "oil-terminal",
    "strategicTier": 1,
    "notes": "Open Roadstead. No shelter. UN/LOCODE: MY TAT. Region: MALAYSIA."
  },
  {
    "id": "wpi-40470",
    "name": "Taranto",
    "country": "Italy",
    "lat": 40.46666666666667,
    "lon": 17.2,
    "type": "commercial",
    "strategicTier": 1,
    "notes": "Coastal Breakwater. Good shelter. UN/LOCODE: IT TAR. Region: ITALY EAST COAST."
  },
  {
    "id": "wpi-38540",
    "name": "Tarragona",
    "country": "Spain",
    "lat": 41.1,
    "lon": 1.2333333333333334,
    "type": "commercial",
    "strategicTier": 1,
    "notes": "Coastal Breakwater. Fair shelter. UN/LOCODE: ES TAR. Region: SPAIN SE COAST."
  },
  {
    "id": "wpi-31720",
    "name": "Teesport",
    "country": "United Kingdom",
    "lat": 54.65,
    "lon": -1.1333333333333333,
    "type": "commercial",
    "strategicTier": 1,
    "notes": "Good shelter. UN/LOCODE: GB TEE. Region: ENGLAND EAST COAST."
  },
  {
    "id": "wpi-60190",
    "name": "Tianjin Xin Gang",
    "country": "China",
    "lat": 38.96666666666667,
    "lon": 117.83333333333333,
    "type": "commercial",
    "strategicTier": 1,
    "notes": "River, Natural. Excellent shelter. UN/LOCODE: CN TXG. Region: CHINA CONTINUED."
  },
  {
    "id": "wpi-61380",
    "name": "Tokyo Ko",
    "country": "Japan",
    "lat": 35.666666666666664,
    "lon": 139.75,
    "type": "commercial",
    "strategicTier": 1,
    "notes": "Canal. Good shelter. UN/LOCODE: JP TYO. Region: JAPAN."
  },
  {
    "id": "wpi-38870",
    "name": "Toulon",
    "country": "France",
    "lat": 43.1,
    "lon": 5.916666666666667,
    "type": "commercial",
    "strategicTier": 1,
    "notes": "Coastal Breakwater. Excellent shelter. UN/LOCODE: FR TLN. Region: FRANCE SOUTH COAST."
  },
  {
    "id": "wpi-8890",
    "name": "Tri-City Port",
    "country": "United States",
    "lat": 38.71666666666667,
    "lon": -90.2,
    "type": "commercial",
    "strategicTier": 1,
    "notes": "River, Natural. Excellent shelter. Region: US GULF COAST."
  },
  {
    "id": "wpi-40820",
    "name": "Trieste",
    "country": "Italy",
    "lat": 45.650999999999996,
    "lon": 13.745999999999999,
    "type": "commercial",
    "strategicTier": 1,
    "notes": "Coastal Breakwater. Good shelter. UN/LOCODE: IT TRS. Region: ITALY EAST COAST."
  },
  {
    "id": "wpi-12855",
    "name": "Tubarao",
    "country": "Brazil",
    "lat": -20.283333333333335,
    "lon": -40.25,
    "type": "commercial",
    "strategicTier": 1,
    "notes": "Coastal Breakwater. Poor shelter. UN/LOCODE: BR TUB. Region: BRAZIL SE COAST."
  },
  {
    "id": "wpi-18150",
    "name": "Vancouver",
    "country": "Canada",
    "lat": 49.28333333333333,
    "lon": -123.11666666666666,
    "type": "commercial",
    "strategicTier": 1,
    "notes": "Canal. Excellent shelter. UN/LOCODE: CA VAN. Region: CANADA WEST COAST."
  },
  {
    "id": "wpi-60610",
    "name": "Vladivostok",
    "country": "Russia",
    "lat": 43.10888888888889,
    "lon": 131.88833333333332,
    "type": "commercial",
    "strategicTier": 1,
    "notes": "Canal. Good shelter. UN/LOCODE: RU VVO. Region: RUSSIA."
  },
  {
    "id": "wpi-62120",
    "name": "Wakamatsu Ko",
    "country": "Japan",
    "lat": 33.9,
    "lon": 130.81666666666666,
    "type": "commercial",
    "strategicTier": 1,
    "notes": "Canal. Fair shelter. UN/LOCODE: JP WAM. Region: JAPAN."
  },
  {
    "id": "wpi-61545",
    "name": "Wakayama-Shimotsu Ko",
    "country": "Japan",
    "lat": 34.2,
    "lon": 135.13333333333333,
    "type": "commercial",
    "strategicTier": 1,
    "notes": "Coastal Breakwater. Fair shelter. UN/LOCODE: JP WAK. Region: JAPAN."
  },
  {
    "id": "wpi-55150",
    "name": "Wellington",
    "country": "New Zealand",
    "lat": -41.28333333333333,
    "lon": 174.78333333333333,
    "type": "commercial",
    "strategicTier": 1,
    "notes": "Canal. Excellent shelter. UN/LOCODE: NZ WLG. Region: NEW ZEALAND N ISLAND."
  },
  {
    "id": "wpi-61390",
    "name": "Yokohama Ko",
    "country": "Japan",
    "lat": 35.45,
    "lon": 139.58333333333334,
    "type": "commercial",
    "strategicTier": 1,
    "notes": "Coastal Breakwater. Good shelter. UN/LOCODE: JP YOK. Region: JAPAN."
  },
  {
    "id": "wpi-48430",
    "name": "Abadan",
    "country": "Iran",
    "lat": 30.333333333333332,
    "lon": 48.28333333333333,
    "type": "commercial",
    "strategicTier": 2,
    "notes": "River, Natural. Good shelter. UN/LOCODE: IR ABD. Region: IRAN."
  },
  {
    "id": "wpi-32220",
    "name": "Aberdeen",
    "country": "United Kingdom",
    "lat": 57.15,
    "lon": -2.0833333333333335,
    "type": "commercial",
    "strategicTier": 2,
    "notes": "Good shelter. UN/LOCODE: GB ABD. Region: SCOTLAND EAST COAST."
  },
  {
    "id": "wpi-48278",
    "name": "Abu Zaby",
    "country": "United Arab Emirates",
    "lat": 24.5,
    "lon": 54.333333333333336,
    "type": "commercial",
    "strategicTier": 2,
    "notes": "Coastal Breakwater. Good shelter. UN/LOCODE: AE AUH. Region: UNITED ARAB EMIRATES."
  },
  {
    "id": "wpi-15760",
    "name": "Acapulco",
    "country": "Mexico",
    "lat": 16.85,
    "lon": -99.93333333333334,
    "type": "commercial",
    "strategicTier": 2,
    "notes": "Canal. Excellent shelter. UN/LOCODE: MX ACA. Region: MEXICO WEST COAST."
  },
  {
    "id": "wpi-48400",
    "name": "Al Basrah",
    "country": "Iraq",
    "lat": 30.516666666666666,
    "lon": 47.833333333333336,
    "type": "commercial",
    "strategicTier": 2,
    "notes": "River, Natural. Good shelter. UN/LOCODE: IQ BSR. Region: IRAQ."
  },
  {
    "id": "wpi-48175",
    "name": "Al Mukha",
    "country": "Yemen",
    "lat": 13.316666666666666,
    "lon": 43.25,
    "type": "commercial",
    "strategicTier": 2,
    "notes": "Canal. Poor shelter. UN/LOCODE: YE MOK. Region: YEMEN ADEN."
  },
  {
    "id": "wpi-7720",
    "name": "Albany",
    "country": "United States",
    "lat": 42.65,
    "lon": -73.75,
    "type": "commercial",
    "strategicTier": 2,
    "notes": "River, Natural. Good shelter. UN/LOCODE: US ALB. Region: UNITED STATES E COAST."
  },
  {
    "id": "wpi-42630",
    "name": "Alexandroupoli",
    "country": "Greece",
    "lat": 40.833333333333336,
    "lon": 25.883333333333333,
    "type": "commercial",
    "strategicTier": 2,
    "notes": "Coastal Breakwater. Fair shelter. UN/LOCODE: GR AXD. Region: GREECE EAST COAST."
  },
  {
    "id": "wpi-38440",
    "name": "Alicante",
    "country": "Spain",
    "lat": 38.333333333333336,
    "lon": -0.48333333333333334,
    "type": "commercial",
    "strategicTier": 2,
    "notes": "Coastal Breakwater. Fair shelter. UN/LOCODE: ES ALC. Region: SPAIN SE COAST."
  },
  {
    "id": "wpi-45490",
    "name": "Annaba",
    "country": "Algeria",
    "lat": 36.916666666666664,
    "lon": 7.766666666666667,
    "type": "commercial",
    "strategicTier": 2,
    "notes": "Coastal Breakwater. Fair shelter. UN/LOCODE: DZ AAE. Region: ALGERIA."
  },
  {
    "id": "wpi-14660",
    "name": "Antofagasta",
    "country": "Chile",
    "lat": -23.65,
    "lon": -70.41666666666667,
    "type": "commercial",
    "strategicTier": 2,
    "notes": "Coastal Breakwater. Good shelter. UN/LOCODE: CL ANF. Region: CHILE."
  },
  {
    "id": "wpi-56550",
    "name": "Apra Harbor",
    "country": "Guam",
    "lat": 13.45,
    "lon": 144.61666666666667,
    "type": "commercial",
    "strategicTier": 2,
    "notes": "Coastal Breakwater. Good shelter. UN/LOCODE: GU APR. Region: GUAM."
  },
  {
    "id": "wpi-40250",
    "name": "Augusta",
    "country": "Italy",
    "lat": 37.21666666666667,
    "lon": 15.233333333333333,
    "type": "commercial",
    "strategicTier": 2,
    "notes": "Coastal Breakwater. Fair shelter. UN/LOCODE: IT AUG. Region: SICILIA."
  },
  {
    "id": "wpi-37970",
    "name": "Aveiro",
    "country": "Portugal",
    "lat": 40.65,
    "lon": -8.65,
    "type": "commercial",
    "strategicTier": 2,
    "notes": "River, Natural. Good shelter. UN/LOCODE: PT AVE. Region: PORTUGAL."
  },
  {
    "id": "wpi-14500",
    "name": "Bahia De Valparaiso",
    "country": "Chile",
    "lat": -33.03333333333333,
    "lon": -71.61666666666666,
    "type": "commercial",
    "strategicTier": 2,
    "notes": "Coastal Breakwater. Fair shelter. UN/LOCODE: CL VAP. Region: CHILE."
  },
  {
    "id": "wpi-15410",
    "name": "Balboa",
    "country": "Panama",
    "lat": 8.95,
    "lon": -79.56666666666666,
    "type": "commercial",
    "strategicTier": 2,
    "notes": "Land Cutoff. Good shelter. UN/LOCODE: PA BLB. Region: PANAMA WEST COAST."
  },
  {
    "id": "wpi-45280",
    "name": "Banghazi",
    "country": "Libya",
    "lat": 32.11666666666667,
    "lon": 20.05,
    "type": "commercial",
    "strategicTier": 2,
    "notes": "Coastal Breakwater. Good shelter. UN/LOCODE: LY BEN. Region: LIBYA."
  },
  {
    "id": "wpi-40530",
    "name": "Bari",
    "country": "Italy",
    "lat": 41.146,
    "lon": 16.846,
    "type": "commercial",
    "strategicTier": 2,
    "notes": "Coastal Breakwater. Good shelter. UN/LOCODE: IT BRI. Region: ITALY EAST COAST."
  },
  {
    "id": "wpi-34630",
    "name": "Barrow In Furness",
    "country": "United Kingdom",
    "lat": 54.11666666666667,
    "lon": -3.2333333333333334,
    "type": "commercial",
    "strategicTier": 2,
    "notes": "Canal with Tide. Good shelter. UN/LOCODE: GB BIF. Region: ENGLAND WEST COAST."
  },
  {
    "id": "wpi-34990",
    "name": "Barry",
    "country": "United Kingdom",
    "lat": 51.4,
    "lon": -3.2666666666666666,
    "type": "commercial",
    "strategicTier": 2,
    "notes": "Canal with Tide. Excellent shelter. UN/LOCODE: GB BAD. Region: WALES."
  },
  {
    "id": "wpi-58320",
    "name": "Batangas City",
    "country": "Philippines",
    "lat": 13.75,
    "lon": 121.05,
    "type": "commercial",
    "strategicTier": 2,
    "notes": "Open Roadstead. Good shelter. UN/LOCODE: PH BTG. Region: PHILIPPINE ISLANDS."
  },
  {
    "id": "wpi-37230",
    "name": "Bayonne",
    "country": "France",
    "lat": 43.5,
    "lon": -1.4666666666666668,
    "type": "commercial",
    "strategicTier": 2,
    "notes": "River, Natural. Excellent shelter. UN/LOCODE: FR BAY. Region: FRANCE WEST COAST."
  },
  {
    "id": "wpi-7790",
    "name": "Bayonne",
    "country": "United States",
    "lat": 40.68333333333333,
    "lon": -74.1,
    "type": "commercial",
    "strategicTier": 2,
    "notes": "River, Natural. Good shelter. UN/LOCODE: US BAY. Region: UNITED STATES E COAST."
  },
  {
    "id": "wpi-9140",
    "name": "Beaumont",
    "country": "United States",
    "lat": 30.083333333333332,
    "lon": -94.08333333333333,
    "type": "commercial",
    "strategicTier": 2,
    "notes": "River, Natural. Good shelter. UN/LOCODE: US BPT. Region: US GULF COAST."
  },
  {
    "id": "wpi-46890",
    "name": "Beira",
    "country": "Mozambique",
    "lat": -19.833333333333332,
    "lon": 34.833333333333336,
    "type": "commercial",
    "strategicTier": 2,
    "notes": "Canal. Good shelter. UN/LOCODE: MZ BEW. Region: MOZAMBIQUE."
  },
  {
    "id": "wpi-50730",
    "name": "Belawan",
    "country": "Indonesia",
    "lat": 3.783333333333333,
    "lon": 98.68333333333334,
    "type": "commercial",
    "strategicTier": 2,
    "notes": "River, Natural. Good shelter. UN/LOCODE: ID BLW. Region: SUMATERA."
  },
  {
    "id": "wpi-12490",
    "name": "Belem",
    "country": "Brazil",
    "lat": -1.45,
    "lon": -48.5,
    "type": "commercial",
    "strategicTier": 2,
    "notes": "River, Natural. Good shelter. UN/LOCODE: BR BEL. Region: BRAZIL NE COAST."
  },
  {
    "id": "wpi-47944",
    "name": "Beshayer Oil Terminal",
    "country": "Sudan",
    "lat": 19.4,
    "lon": 37.31666666666667,
    "type": "oil-terminal",
    "strategicTier": 2,
    "notes": "Open Roadstead. Region: SUDAN."
  },
  {
    "id": "wpi-31820",
    "name": "Blyth",
    "country": "United Kingdom",
    "lat": 55.11666666666667,
    "lon": -1.5,
    "type": "commercial",
    "strategicTier": 2,
    "notes": "River, Natural. Good shelter. UN/LOCODE: GB BLY. Region: ENGLAND EAST COAST."
  },
  {
    "id": "wpi-35760",
    "name": "Boulogne-Sur-Mer",
    "country": "France",
    "lat": 50.733333333333334,
    "lon": 1.6,
    "type": "commercial",
    "strategicTier": 2,
    "notes": "Good shelter. UN/LOCODE: FR BOL. Region: FRANCE NW COAST."
  },
  {
    "id": "wpi-30850",
    "name": "Brake",
    "country": "Germany",
    "lat": 53.333333333333336,
    "lon": 8.483333333333333,
    "type": "commercial",
    "strategicTier": 2,
    "notes": "Good shelter. UN/LOCODE: DE BKE. Region: GERMANY."
  },
  {
    "id": "wpi-17430",
    "name": "Bremerton",
    "country": "United States",
    "lat": 47.56666666666667,
    "lon": -122.65,
    "type": "commercial",
    "strategicTier": 2,
    "notes": "Canal. Excellent shelter. UN/LOCODE: US PWT. Region: UNITED STATES W COAST."
  },
  {
    "id": "wpi-7570",
    "name": "Bridgeport",
    "country": "United States",
    "lat": 41.166666666666664,
    "lon": -73.18333333333334,
    "type": "commercial",
    "strategicTier": 2,
    "notes": "Coastal Breakwater. Excellent shelter. UN/LOCODE: US BDR. Region: UNITED STATES E COAST."
  },
  {
    "id": "wpi-35070",
    "name": "Bristol",
    "country": "United Kingdom",
    "lat": 51.46666666666667,
    "lon": -2.6333333333333333,
    "type": "commercial",
    "strategicTier": 2,
    "notes": "Excellent shelter. UN/LOCODE: GB BRS. Region: ENGLAND SW COAST."
  },
  {
    "id": "wpi-4770",
    "name": "Buffington",
    "country": "United States",
    "lat": 41.63333333333333,
    "lon": -87.41666666666667,
    "type": "commercial",
    "strategicTier": 2,
    "notes": "Coastal Breakwater. Fair shelter. Region: US LAKE MICHIGAN."
  },
  {
    "id": "wpi-48470",
    "name": "Bushehr",
    "country": "Iran",
    "lat": 28.983333333333334,
    "lon": 50.833333333333336,
    "type": "commercial",
    "strategicTier": 2,
    "notes": "Canal. Fair shelter. UN/LOCODE: IR BUZ. Region: IRAN."
  },
  {
    "id": "wpi-38290",
    "name": "Cadiz",
    "country": "Spain",
    "lat": 36.53333333333333,
    "lon": -6.3,
    "type": "commercial",
    "strategicTier": 2,
    "notes": "Coastal Breakwater. Good shelter. UN/LOCODE: ES CAD. Region: SPAIN SW COAST."
  },
  {
    "id": "wpi-59710",
    "name": "Cagayan De Oro",
    "country": "Philippines",
    "lat": 8.5,
    "lon": 124.66666666666667,
    "type": "commercial",
    "strategicTier": 2,
    "notes": "Canal. Good shelter. UN/LOCODE: PH CGY. Region: PHILIPPINE ISLANDS."
  },
  {
    "id": "wpi-39210",
    "name": "Cagliari",
    "country": "Italy",
    "lat": 39.19,
    "lon": 9.102,
    "type": "commercial",
    "strategicTier": 2,
    "notes": "Coastal Breakwater. Good shelter. UN/LOCODE: IT CAG. Region: SARDEGNA."
  },
  {
    "id": "wpi-4790",
    "name": "Calumet Harbor",
    "country": "United States",
    "lat": 41.733333333333334,
    "lon": -87.51666666666667,
    "type": "commercial",
    "strategicTier": 2,
    "notes": "Coastal Breakwater. Excellent shelter. UN/LOCODE: US CAY. Region: US LAKE MICHIGAN."
  },
  {
    "id": "wpi-8130",
    "name": "Camden",
    "country": "United States",
    "lat": 39.95,
    "lon": -75.13333333333334,
    "type": "commercial",
    "strategicTier": 2,
    "notes": "River, Natural. Excellent shelter. UN/LOCODE: US CDE. Region: UNITED STATES E COAST."
  },
  {
    "id": "wpi-35010",
    "name": "Cardiff",
    "country": "United Kingdom",
    "lat": 51.45,
    "lon": -3.1666666666666665,
    "type": "commercial",
    "strategicTier": 2,
    "notes": "Canal with Tide. Excellent shelter. UN/LOCODE: GB CDF. Region: WALES."
  },
  {
    "id": "wpi-40270",
    "name": "Catania",
    "country": "Italy",
    "lat": 37.5,
    "lon": 15.1,
    "type": "commercial",
    "strategicTier": 2,
    "notes": "Coastal Breakwater. Fair shelter. UN/LOCODE: IT CTA. Region: SICILIA."
  },
  {
    "id": "wpi-45730",
    "name": "Ceuta",
    "country": "Spain",
    "lat": 35.9,
    "lon": -5.316666666666666,
    "type": "commercial",
    "strategicTier": 2,
    "notes": "Coastal Breakwater. Fair shelter. UN/LOCODE: ES CEU. Region: MOROCCO."
  },
  {
    "id": "wpi-57862",
    "name": "Chaozhou",
    "country": "China",
    "lat": 23.616666666666667,
    "lon": 117.08333333333333,
    "type": "commercial",
    "strategicTier": 2,
    "notes": "Canal. Fair shelter. UN/LOCODE: CN COZ. Region: CHINA."
  },
  {
    "id": "wpi-4800",
    "name": "Chicago",
    "country": "United States",
    "lat": 41.88333333333333,
    "lon": -87.6,
    "type": "commercial",
    "strategicTier": 2,
    "notes": "Canal with Tide. Excellent shelter. UN/LOCODE: US CHI. Region: US LAKE MICHIGAN."
  },
  {
    "id": "wpi-34350",
    "name": "Cobh",
    "country": "Ireland",
    "lat": 51.85,
    "lon": -8.3,
    "type": "commercial",
    "strategicTier": 2,
    "notes": "River, Natural. Excellent shelter. UN/LOCODE: IE COB. Region: IRELAND."
  },
  {
    "id": "wpi-45855",
    "name": "Conakry",
    "country": "Guinea",
    "lat": 9.516666666666667,
    "lon": -13.716666666666667,
    "type": "commercial",
    "strategicTier": 2,
    "notes": "Coastal Breakwater. Good shelter. UN/LOCODE: GN CKY. Region: GUINEA."
  },
  {
    "id": "wpi-43560",
    "name": "Constanta",
    "country": "Romania",
    "lat": 44.166666666666664,
    "lon": 28.65,
    "type": "commercial",
    "strategicTier": 2,
    "notes": "Coastal Breakwater. Good shelter. UN/LOCODE: RO CND. Region: ROMANIA."
  },
  {
    "id": "wpi-34360",
    "name": "Cork",
    "country": "Ireland",
    "lat": 51.85,
    "lon": -8.266666666666667,
    "type": "commercial",
    "strategicTier": 2,
    "notes": "River, Natural. Excellent shelter. UN/LOCODE: IE ORK. Region: IRELAND."
  },
  {
    "id": "wpi-9300",
    "name": "Corpus Christi",
    "country": "United States",
    "lat": 27.816666666666666,
    "lon": -97.4,
    "type": "commercial",
    "strategicTier": 2,
    "notes": "Canal. Good shelter. UN/LOCODE: US CRP. Region: US GULF COAST."
  },
  {
    "id": "wpi-30800",
    "name": "Cuxhaven",
    "country": "Germany",
    "lat": 53.86666666666667,
    "lon": 8.716666666666667,
    "type": "commercial",
    "strategicTier": 2,
    "notes": "Good shelter. UN/LOCODE: DE CUX. Region: GERMANY."
  },
  {
    "id": "wpi-45820",
    "name": "Dakar",
    "country": "Senegal",
    "lat": 14.683333333333334,
    "lon": -17.433333333333334,
    "type": "commercial",
    "strategicTier": 2,
    "notes": "Coastal Breakwater. Good shelter. UN/LOCODE: SN DKR. Region: SENEGAL."
  },
  {
    "id": "wpi-43565",
    "name": "Danube-Black Sea Canal",
    "country": "Romania",
    "lat": 44.266666666666666,
    "lon": 28.183333333333334,
    "type": "commercial",
    "strategicTier": 2,
    "notes": "Land Cutoff. Poor shelter. Region: ROMANIA."
  },
  {
    "id": "wpi-47010",
    "name": "Dar Es Salaam",
    "country": "Tanzania",
    "lat": -6.816666666666666,
    "lon": 39.3,
    "type": "commercial",
    "strategicTier": 2,
    "notes": "Canal. Excellent shelter. UN/LOCODE: TZ DAR. Region: TANZANIA."
  },
  {
    "id": "wpi-60810",
    "name": "De Kastri",
    "country": "Russia",
    "lat": 51.46666666666667,
    "lon": 140.78333333333333,
    "type": "commercial",
    "strategicTier": 2,
    "notes": "Canal. Poor shelter. UN/LOCODE: RU DKA. Region: RUSSIA."
  },
  {
    "id": "wpi-31150",
    "name": "Dordrecht",
    "country": "Netherlands",
    "lat": 51.81666666666667,
    "lon": 4.65,
    "type": "commercial",
    "strategicTier": 2,
    "notes": "River, Natural. Good shelter. UN/LOCODE: NL DOR. Region: NETHERLANDS."
  },
  {
    "id": "wpi-12900",
    "name": "Dtse / Gegua Oil Terminal",
    "country": "Brazil",
    "lat": -22.816666666666666,
    "lon": -43.15,
    "type": "oil-terminal",
    "strategicTier": 2,
    "notes": "Open Roadstead. Fair shelter. Region: BRAZIL SE COAST."
  },
  {
    "id": "wpi-34480",
    "name": "Dublin",
    "country": "Ireland",
    "lat": 53.35,
    "lon": -6.25,
    "type": "commercial",
    "strategicTier": 2,
    "notes": "Coastal Breakwater. Excellent shelter. UN/LOCODE: IE MTL. Region: IRELAND."
  },
  {
    "id": "wpi-62720",
    "name": "Dudinka",
    "country": "Russia",
    "lat": 69.4,
    "lon": 86.16666666666667,
    "type": "commercial",
    "strategicTier": 2,
    "notes": "River, Natural. Good shelter. UN/LOCODE: RU DUD. Region: RUSSIA."
  },
  {
    "id": "wpi-5460",
    "name": "Duluth",
    "country": "United States",
    "lat": 46.766666666666666,
    "lon": -92.1,
    "type": "commercial",
    "strategicTier": 2,
    "notes": "Coastal Breakwater. Excellent shelter. UN/LOCODE: US DLH. Region: US LAKE SUPERIOR."
  },
  {
    "id": "wpi-50785",
    "name": "Dumai",
    "country": "Indonesia",
    "lat": 1.6833333333333333,
    "lon": 101.45,
    "type": "commercial",
    "strategicTier": 2,
    "notes": "River, Natural. Fair shelter. UN/LOCODE: ID DUM. Region: SUMATERA."
  },
  {
    "id": "wpi-35730",
    "name": "Dunkerque Port Est",
    "country": "France",
    "lat": 51.05,
    "lon": 2.3833333333333333,
    "type": "commercial",
    "strategicTier": 2,
    "notes": "Excellent shelter. UN/LOCODE: FR DKK. Region: FRANCE NW COAST."
  },
  {
    "id": "wpi-35732",
    "name": "Dunkerque Port Ouest",
    "country": "France",
    "lat": 51.06666666666667,
    "lon": 2.35,
    "type": "commercial",
    "strategicTier": 2,
    "notes": "Canal with Tide. Good shelter. UN/LOCODE: FR DKK. Region: FRANCE NW COAST."
  },
  {
    "id": "wpi-30950",
    "name": "Emden",
    "country": "Germany",
    "lat": 53.333333333333336,
    "lon": 7.183333333333334,
    "type": "commercial",
    "strategicTier": 2,
    "notes": "Good shelter. UN/LOCODE: DE EME. Region: GERMANY."
  },
  {
    "id": "wpi-16740",
    "name": "Empire",
    "country": "United States",
    "lat": 43.4,
    "lon": -124.28333333333333,
    "type": "commercial",
    "strategicTier": 2,
    "notes": "Canal. Excellent shelter. Region: UNITED STATES W COAST."
  },
  {
    "id": "wpi-15990",
    "name": "Ensenada",
    "country": "Mexico",
    "lat": 31.866666666666667,
    "lon": -116.63333333333334,
    "type": "commercial",
    "strategicTier": 2,
    "notes": "Coastal Breakwater. Good shelter. UN/LOCODE: MX ESE. Region: MEXICO WEST COAST."
  },
  {
    "id": "wpi-11170",
    "name": "Ensenada Honda",
    "country": "Puerto Rico",
    "lat": 18.233333333333334,
    "lon": -65.63333333333334,
    "type": "commercial",
    "strategicTier": 2,
    "notes": "Coastal Breakwater. Fair shelter. Region: PUERTO RICO."
  },
  {
    "id": "wpi-38330",
    "name": "Europa Point",
    "country": "Gibraltar",
    "lat": 36.13333333333333,
    "lon": -5.35,
    "type": "commercial",
    "strategicTier": 2,
    "notes": "Coastal Breakwater. Good shelter. Region: GIBRALTAR."
  },
  {
    "id": "wpi-31085",
    "name": "Europoort",
    "country": "Netherlands",
    "lat": 51.95,
    "lon": 4.116666666666666,
    "type": "commercial",
    "strategicTier": 2,
    "notes": "Land Cutoff. Good shelter. UN/LOCODE: NL EUR. Region: NETHERLANDS."
  },
  {
    "id": "wpi-35290",
    "name": "Falmouth Harbour",
    "country": "United Kingdom",
    "lat": 50.15,
    "lon": -5.066666666666666,
    "type": "commercial",
    "strategicTier": 2,
    "notes": "Canal. Good shelter. UN/LOCODE: GB FAL. Region: ENGLAND SOUTH COAST."
  },
  {
    "id": "wpi-57745",
    "name": "Fang-Cheng",
    "country": "China",
    "lat": 21.75,
    "lon": 108.35,
    "type": "commercial",
    "strategicTier": 2,
    "notes": "River, Natural. Good shelter. UN/LOCODE: CN FAN. Region: CHINA."
  },
  {
    "id": "wpi-37740",
    "name": "Ferrol",
    "country": "Spain",
    "lat": 43.483333333333334,
    "lon": -8.233333333333333,
    "type": "commercial",
    "strategicTier": 2,
    "notes": "River, Natural. Excellent shelter. UN/LOCODE: ES FRO. Region: SPAIN N COAST."
  },
  {
    "id": "wpi-50910",
    "name": "Flying Fish Cove",
    "country": "Christmas Island",
    "lat": -10.416666666666666,
    "lon": 105.7,
    "type": "commercial",
    "strategicTier": 2,
    "notes": "Canal. Fair shelter. UN/LOCODE: CX FFC. Region: CHRISTMAS ISLAND."
  },
  {
    "id": "wpi-11550",
    "name": "Fort De France",
    "country": "Martinique",
    "lat": 14.6,
    "lon": -61.06666666666667,
    "type": "commercial",
    "strategicTier": 2,
    "notes": "Open Roadstead. Good shelter. UN/LOCODE: MQ FDF. Region: MARTINIQUE."
  },
  {
    "id": "wpi-61820",
    "name": "Fukui Ko",
    "country": "Japan",
    "lat": 36.18333333333333,
    "lon": 136.1,
    "type": "commercial",
    "strategicTier": 2,
    "notes": "River, Natural. UN/LOCODE: JP FKJ. Region: JAPAN."
  },
  {
    "id": "wpi-61605",
    "name": "Fukuyama",
    "country": "Japan",
    "lat": 34.43333333333333,
    "lon": 133.43333333333334,
    "type": "commercial",
    "strategicTier": 2,
    "notes": "Canal. Good shelter. UN/LOCODE: JP FYM. Region: JAPAN."
  },
  {
    "id": "wpi-40480",
    "name": "Gallipoli",
    "country": "Italy",
    "lat": 40.059999999999995,
    "lon": 17.984,
    "type": "commercial",
    "strategicTier": 2,
    "notes": "Coastal Breakwater. Excellent shelter. UN/LOCODE: IT GAL. Region: ITALY EAST COAST."
  },
  {
    "id": "wpi-4760",
    "name": "Gary",
    "country": "United States",
    "lat": 41.61666666666667,
    "lon": -87.33333333333333,
    "type": "commercial",
    "strategicTier": 2,
    "notes": "Coastal Breakwater. Good shelter. UN/LOCODE: US GYY. Region: US LAKE MICHIGAN."
  },
  {
    "id": "wpi-46670",
    "name": "Georgetown",
    "country": "Saint Helena, Ascension, And Tristan Da Cunha",
    "lat": -7.933333333333334,
    "lon": -14.416666666666666,
    "type": "commercial",
    "strategicTier": 2,
    "notes": "Open Roadstead. Poor shelter. UN/LOCODE: SH ASI. Region: ASCENSION."
  },
  {
    "id": "wpi-12370",
    "name": "Georgetown",
    "country": "Guyana",
    "lat": 6.833333333333333,
    "lon": -58.166666666666664,
    "type": "commercial",
    "strategicTier": 2,
    "notes": "River, Natural. Good shelter. UN/LOCODE: GY GEO. Region: GUYANA."
  },
  {
    "id": "wpi-31270",
    "name": "Ghent",
    "country": "Belgium",
    "lat": 51.06666666666667,
    "lon": 3.7333333333333334,
    "type": "commercial",
    "strategicTier": 2,
    "notes": "Land Cutoff. Fair shelter. UN/LOCODE: BE GNE. Region: BELGIUM."
  },
  {
    "id": "wpi-33490",
    "name": "Glasgow",
    "country": "United Kingdom",
    "lat": 55.86666666666667,
    "lon": -4.283333333333333,
    "type": "commercial",
    "strategicTier": 2,
    "notes": "Excellent shelter. UN/LOCODE: GB GLW. Region: SCOTLAND WEST COAST."
  },
  {
    "id": "wpi-33390",
    "name": "Greenock",
    "country": "United Kingdom",
    "lat": 55.95,
    "lon": -4.75,
    "type": "commercial",
    "strategicTier": 2,
    "notes": "Canal. Fair shelter. UN/LOCODE: GB GRK. Region: SCOTLAND WEST COAST."
  },
  {
    "id": "wpi-31640",
    "name": "Grimsby",
    "country": "United Kingdom",
    "lat": 53.583333333333336,
    "lon": -0.06666666666666667,
    "type": "commercial",
    "strategicTier": 2,
    "notes": "Excellent shelter. UN/LOCODE: GB GSY. Region: ENGLAND EAST COAST."
  },
  {
    "id": "wpi-57830",
    "name": "Guangzhou",
    "country": "China",
    "lat": 23.116666666666667,
    "lon": 113.23333333333333,
    "type": "commercial",
    "strategicTier": 2,
    "notes": "River, Natural. Good shelter. UN/LOCODE: CN GGZ. Region: CHINA."
  },
  {
    "id": "wpi-45080",
    "name": "Haifa",
    "country": "Israel",
    "lat": 32.81666666666667,
    "lon": 35,
    "type": "commercial",
    "strategicTier": 2,
    "notes": "Coastal Breakwater. Good shelter. UN/LOCODE: IL HFA. Region: ISRAEL."
  },
  {
    "id": "wpi-62430",
    "name": "Hakata",
    "country": "Japan",
    "lat": 33.6,
    "lon": 130.4,
    "type": "commercial",
    "strategicTier": 2,
    "notes": "Coastal Breakwater. Good shelter. UN/LOCODE: JP HKT. Region: JAPAN."
  },
  {
    "id": "wpi-61190",
    "name": "Hakodate Ko",
    "country": "Japan",
    "lat": 41.78333333333333,
    "lon": 140.71666666666667,
    "type": "commercial",
    "strategicTier": 2,
    "notes": "Coastal Breakwater. Excellent shelter. UN/LOCODE: JP HKD. Region: JAPAN."
  },
  {
    "id": "wpi-3050",
    "name": "Hamilton",
    "country": "Canada",
    "lat": 43.25,
    "lon": -79.85,
    "type": "commercial",
    "strategicTier": 2,
    "notes": "Canal. Excellent shelter. UN/LOCODE: CA HAM. Region: CANADA LAKE ONTARIO."
  },
  {
    "id": "wpi-60060",
    "name": "Hankow",
    "country": "China",
    "lat": 30.583333333333332,
    "lon": 114.28333333333333,
    "type": "commercial",
    "strategicTier": 2,
    "notes": "River, Natural. Fair shelter. UN/LOCODE: CN HNK. Region: CHINA CONTINUED."
  },
  {
    "id": "wpi-21610",
    "name": "Harstad",
    "country": "Norway",
    "lat": 68.8,
    "lon": 16.55,
    "type": "commercial",
    "strategicTier": 2,
    "notes": "Canal. Good shelter. UN/LOCODE: NO HRD. Region: NORWAY."
  },
  {
    "id": "wpi-44540",
    "name": "Haydarpasa",
    "country": "Turkey",
    "lat": 41,
    "lon": 29.016666666666666,
    "type": "commercial",
    "strategicTier": 2,
    "notes": "Coastal Breakwater. Good shelter. UN/LOCODE: TR HAY. Region: TURKEY ASIA."
  },
  {
    "id": "wpi-61568",
    "name": "Higashi-Harima",
    "country": "Japan",
    "lat": 34.7,
    "lon": 134.83333333333334,
    "type": "commercial",
    "strategicTier": 2,
    "notes": "Coastal Breakwater. Good shelter. UN/LOCODE: JP HHR. Region: JAPAN."
  },
  {
    "id": "wpi-56090",
    "name": "Hilo",
    "country": "United States",
    "lat": 19.733333333333334,
    "lon": -155.06666666666666,
    "type": "commercial",
    "strategicTier": 2,
    "notes": "Coastal Breakwater. Good shelter. UN/LOCODE: US ITO. Region: HAWAIIAN ISLANDS."
  },
  {
    "id": "wpi-61567",
    "name": "Himeji",
    "country": "Japan",
    "lat": 34.75,
    "lon": 134.63333333333333,
    "type": "commercial",
    "strategicTier": 2,
    "notes": "Coastal Breakwater. Fair shelter. UN/LOCODE: JP HIM. Region: JAPAN."
  },
  {
    "id": "wpi-61650",
    "name": "Hiroshima",
    "country": "Japan",
    "lat": 34.35,
    "lon": 132.46666666666667,
    "type": "commercial",
    "strategicTier": 2,
    "notes": "Open Roadstead. Fair shelter. UN/LOCODE: JP HIJ. Region: JAPAN."
  },
  {
    "id": "wpi-54760",
    "name": "Hobart",
    "country": "Australia",
    "lat": -42.88333333333333,
    "lon": 147.33333333333334,
    "type": "commercial",
    "strategicTier": 2,
    "notes": "River, Natural. Excellent shelter. UN/LOCODE: AU HBA. Region: TASMANIA."
  },
  {
    "id": "wpi-7770",
    "name": "Hoboken",
    "country": "United States",
    "lat": 40.75,
    "lon": -74.01666666666667,
    "type": "commercial",
    "strategicTier": 2,
    "notes": "River, Natural. Good shelter. UN/LOCODE: US HBK. Region: UNITED STATES E COAST."
  },
  {
    "id": "wpi-56280",
    "name": "Honolulu",
    "country": "United States",
    "lat": 21.3,
    "lon": -157.86666666666667,
    "type": "commercial",
    "strategicTier": 2,
    "notes": "Coastal Breakwater. Excellent shelter. UN/LOCODE: US HNL. Region: HAWAIIAN ISLANDS."
  },
  {
    "id": "wpi-57910",
    "name": "Hua-Lien Kang",
    "country": "Taiwan",
    "lat": 23.983333333333334,
    "lon": 121.6,
    "type": "commercial",
    "strategicTier": 2,
    "notes": "Coastal Breakwater. Excellent shelter. UN/LOCODE: TW HUN. Region: TAIWAN."
  },
  {
    "id": "wpi-38220",
    "name": "Huelva",
    "country": "Spain",
    "lat": 37.25,
    "lon": -6.95,
    "type": "commercial",
    "strategicTier": 2,
    "notes": "River, Natural. Good shelter. UN/LOCODE: ES HUV. Region: SPAIN SW COAST."
  },
  {
    "id": "wpi-31650",
    "name": "Immingham",
    "country": "United Kingdom",
    "lat": 53.63333333333333,
    "lon": -0.2,
    "type": "commercial",
    "strategicTier": 2,
    "notes": "Excellent shelter. UN/LOCODE: GB IMM. Region: ENGLAND EAST COAST."
  },
  {
    "id": "wpi-4780",
    "name": "Indiana Harbor",
    "country": "United States",
    "lat": 41.666666666666664,
    "lon": -87.43333333333334,
    "type": "commercial",
    "strategicTier": 2,
    "notes": "Coastal Breakwater. Fair shelter. UN/LOCODE: US ECH. Region: US LAKE MICHIGAN."
  },
  {
    "id": "wpi-43130",
    "name": "Iraklion",
    "country": "Greece",
    "lat": 35.35,
    "lon": 25.15,
    "type": "commercial",
    "strategicTier": 2,
    "notes": "Coastal Breakwater. Good shelter. UN/LOCODE: GR HER. Region: KRITI."
  },
  {
    "id": "wpi-9950",
    "name": "Ireland Island",
    "country": "Bermuda",
    "lat": 32.31666666666667,
    "lon": -64.83333333333333,
    "type": "commercial",
    "strategicTier": 2,
    "notes": "Coastal Breakwater. Good shelter. UN/LOCODE: BM FPT. Region: BERMUDA ISLANDS."
  },
  {
    "id": "wpi-61245",
    "name": "Ishikari Bay New Port",
    "country": "Japan",
    "lat": 43.21666666666667,
    "lon": 141.28333333333333,
    "type": "commercial",
    "strategicTier": 2,
    "notes": "Coastal Breakwater. Fair shelter. UN/LOCODE: JP ISI. Region: JAPAN."
  },
  {
    "id": "wpi-13020",
    "name": "Itajai",
    "country": "Brazil",
    "lat": -26.916666666666668,
    "lon": -48.63333333333333,
    "type": "commercial",
    "strategicTier": 2,
    "notes": "River, Natural. Good shelter. UN/LOCODE: BR ITJ. Region: BRAZIL SE COAST."
  },
  {
    "id": "wpi-61662",
    "name": "Iwakuni Ko",
    "country": "Japan",
    "lat": 34.18333333333333,
    "lon": 132.25,
    "type": "commercial",
    "strategicTier": 2,
    "notes": "Open Roadstead. Good shelter. UN/LOCODE: JP IWK. Region: JAPAN."
  },
  {
    "id": "wpi-48282",
    "name": "Jabal Az Zannah/ruways",
    "country": "United Arab Emirates",
    "lat": 24.2,
    "lon": 52.7,
    "type": "commercial",
    "strategicTier": 2,
    "notes": "Coastal Breakwater. Fair shelter. UN/LOCODE: AE JED. Region: UNITED ARAB EMIRATES."
  },
  {
    "id": "wpi-8580",
    "name": "Jacksonville",
    "country": "United States",
    "lat": 30.316666666666666,
    "lon": -81.65,
    "type": "commercial",
    "strategicTier": 2,
    "notes": "River, Natural. Excellent shelter. UN/LOCODE: US JAX. Region: UNITED STATES E COAST."
  },
  {
    "id": "wpi-7780",
    "name": "Jersey City",
    "country": "United States",
    "lat": 40.71666666666667,
    "lon": -74.03333333333333,
    "type": "commercial",
    "strategicTier": 2,
    "notes": "River, Natural. Good shelter. UN/LOCODE: US JEC. Region: UNITED STATES E COAST."
  },
  {
    "id": "wpi-62220",
    "name": "Kagoshima Ko",
    "country": "Japan",
    "lat": 31.583333333333332,
    "lon": 130.56666666666666,
    "type": "commercial",
    "strategicTier": 2,
    "notes": "Canal. Good shelter. UN/LOCODE: JP KOJ. Region: JAPAN."
  },
  {
    "id": "wpi-28690",
    "name": "Kaliningrad",
    "country": "Russia",
    "lat": 54.7,
    "lon": 20.483333333333334,
    "type": "commercial",
    "strategicTier": 2,
    "notes": "Excellent shelter. UN/LOCODE: RU KGD. Region: RUSSIA."
  },
  {
    "id": "wpi-57485",
    "name": "Kampong Saom",
    "country": "Cambodia",
    "lat": 10.633333333333333,
    "lon": 103.5,
    "type": "commercial",
    "strategicTier": 2,
    "notes": "Coastal Breakwater. Good shelter. UN/LOCODE: KH KOS. Region: CAMBODIA."
  },
  {
    "id": "wpi-57920",
    "name": "Kao-Hsiung",
    "country": "Taiwan",
    "lat": 22.616666666666667,
    "lon": 120.25,
    "type": "commercial",
    "strategicTier": 2,
    "notes": "Coastal Breakwater. Fair shelter. UN/LOCODE: TW KHH. Region: TAIWAN."
  },
  {
    "id": "wpi-48600",
    "name": "Karachi",
    "country": "Pakistan",
    "lat": 24.783333333333335,
    "lon": 66.98333333333333,
    "type": "commercial",
    "strategicTier": 2,
    "notes": "Canal. Good shelter. UN/LOCODE: PK KHI. Region: PAKISTAN."
  },
  {
    "id": "wpi-23451",
    "name": "Karsto",
    "country": "Norway",
    "lat": 59.266666666666666,
    "lon": 5.516666666666667,
    "type": "commercial",
    "strategicTier": 2,
    "notes": "Open Roadstead. Fair shelter. UN/LOCODE: NO KAR. Region: NORWAY."
  },
  {
    "id": "wpi-41720",
    "name": "Kerkira",
    "country": "Greece",
    "lat": 39.61666666666667,
    "lon": 19.933333333333334,
    "type": "commercial",
    "strategicTier": 2,
    "notes": "Open Roadstead. Good shelter. UN/LOCODE: GR CFU. Region: GREECE WEST COAST."
  },
  {
    "id": "wpi-48327",
    "name": "Khalifa Bin Salman",
    "country": "Bahrain",
    "lat": 26.25,
    "lon": 50.75,
    "type": "commercial",
    "strategicTier": 2,
    "notes": "Coastal Breakwater. Fair shelter. UN/LOCODE: BH KBS. Region: BAHRAIN."
  },
  {
    "id": "wpi-48263",
    "name": "Khawr Fakkan",
    "country": "United Arab Emirates",
    "lat": 25.36277777777778,
    "lon": 56.36888888888889,
    "type": "commercial",
    "strategicTier": 2,
    "notes": "Canal. Fair shelter. UN/LOCODE: AE KLF. Region: UNITED ARAB EMIRATES."
  },
  {
    "id": "wpi-48420",
    "name": "Khorramshahr",
    "country": "Iran",
    "lat": 30.433333333333334,
    "lon": 48.18333333333333,
    "type": "commercial",
    "strategicTier": 2,
    "notes": "River, Natural. Good shelter. UN/LOCODE: IR KHO. Region: IRAN."
  },
  {
    "id": "wpi-31660",
    "name": "Kingston Upon Hull",
    "country": "United Kingdom",
    "lat": 53.75,
    "lon": -0.2833333333333333,
    "type": "commercial",
    "strategicTier": 2,
    "notes": "Excellent shelter. UN/LOCODE: GB HUL. Region: ENGLAND EAST COAST."
  },
  {
    "id": "wpi-61970",
    "name": "Kochi Ko",
    "country": "Japan",
    "lat": 33.5,
    "lon": 133.56666666666666,
    "type": "commercial",
    "strategicTier": 2,
    "notes": "Canal. Poor shelter. UN/LOCODE: JP KCZ. Region: JAPAN."
  },
  {
    "id": "wpi-51690",
    "name": "Kota Kinabalu",
    "country": "Malaysia",
    "lat": 5.983333333333333,
    "lon": 116.06666666666666,
    "type": "commercial",
    "strategicTier": 2,
    "notes": "Canal. Fair shelter. UN/LOCODE: MY BKI. Region: SABAH."
  },
  {
    "id": "wpi-61640",
    "name": "Kure",
    "country": "Japan",
    "lat": 34.233333333333334,
    "lon": 132.55,
    "type": "commercial",
    "strategicTier": 2,
    "notes": "Canal. Good shelter. UN/LOCODE: JP KRE. Region: JAPAN."
  },
  {
    "id": "wpi-61160",
    "name": "Kushiro Ko",
    "country": "Japan",
    "lat": 42.983333333333334,
    "lon": 144.36666666666667,
    "type": "commercial",
    "strategicTier": 2,
    "notes": "Coastal Breakwater. Good shelter. UN/LOCODE: JP KUH. Region: JAPAN."
  },
  {
    "id": "wpi-45420",
    "name": "La Goulette",
    "country": "Tunisia",
    "lat": 36.8,
    "lon": 10.3,
    "type": "commercial",
    "strategicTier": 2,
    "notes": "Coastal Breakwater. Fair shelter. UN/LOCODE: TN LGN. Region: TUNISIA."
  },
  {
    "id": "wpi-37000",
    "name": "La Pallice",
    "country": "France",
    "lat": 46.166666666666664,
    "lon": -1.2166666666666668,
    "type": "commercial",
    "strategicTier": 2,
    "notes": "Canal with Tide. Excellent shelter. UN/LOCODE: FR LPE. Region: FRANCE WEST COAST."
  },
  {
    "id": "wpi-13770",
    "name": "La Plata",
    "country": "Argentina",
    "lat": -34.833333333333336,
    "lon": -57.88333333333333,
    "type": "commercial",
    "strategicTier": 2,
    "notes": "Excellent shelter. UN/LOCODE: AR LPG. Region: ARGENTINA."
  },
  {
    "id": "wpi-37010",
    "name": "La Rochelle",
    "country": "France",
    "lat": 46.15,
    "lon": -1.15,
    "type": "commercial",
    "strategicTier": 2,
    "notes": "Canal with Tide. Excellent shelter. UN/LOCODE: FR LRH. Region: FRANCE WEST COAST."
  },
  {
    "id": "wpi-31930",
    "name": "Leith",
    "country": "United Kingdom",
    "lat": 55.983333333333334,
    "lon": -3.183333333333333,
    "type": "commercial",
    "strategicTier": 2,
    "notes": "Good shelter. UN/LOCODE: GB LEI. Region: SCOTLAND EAST COAST."
  },
  {
    "id": "wpi-32600",
    "name": "Lerwick",
    "country": "United Kingdom",
    "lat": 60.166999999999994,
    "lon": -1.15,
    "type": "commercial",
    "strategicTier": 2,
    "notes": "Canal. Fair shelter. UN/LOCODE: GB LER. Region: SHETLAND ISLANDS."
  },
  {
    "id": "wpi-36960",
    "name": "Les Sables D' Olonne",
    "country": "France",
    "lat": 46.5,
    "lon": -1.8,
    "type": "commercial",
    "strategicTier": 2,
    "notes": "Fair shelter. UN/LOCODE: FR LSO. Region: FRANCE WEST COAST."
  },
  {
    "id": "wpi-46430",
    "name": "Libreville",
    "country": "Gabon",
    "lat": 0.38333333333333336,
    "lon": 9.45,
    "type": "commercial",
    "strategicTier": 2,
    "notes": "Open Roadstead. Good shelter. UN/LOCODE: GA LBV. Region: GABON."
  },
  {
    "id": "wpi-33830",
    "name": "Londonderry",
    "country": "United Kingdom",
    "lat": 55,
    "lon": -7.316666666666666,
    "type": "commercial",
    "strategicTier": 2,
    "notes": "River, Natural. Excellent shelter. UN/LOCODE: GB LDY. Region: NORTHERN IRELAND."
  },
  {
    "id": "wpi-16070",
    "name": "Long Beach",
    "country": "United States",
    "lat": 33.766666666666666,
    "lon": -118.18333333333334,
    "type": "commercial",
    "strategicTier": 2,
    "notes": "Coastal Breakwater. Excellent shelter. UN/LOCODE: US LGB. Region: UNITED STATES W COAST."
  },
  {
    "id": "wpi-36680",
    "name": "Lorient",
    "country": "France",
    "lat": 47.75,
    "lon": -3.35,
    "type": "commercial",
    "strategicTier": 2,
    "notes": "River, Natural. Excellent shelter. UN/LOCODE: FR LRT. Region: FRANCE WEST COAST."
  },
  {
    "id": "wpi-32490",
    "name": "Lyness",
    "country": "United Kingdom",
    "lat": 58.833333333333336,
    "lon": -3.2,
    "type": "commercial",
    "strategicTier": 2,
    "notes": "Canal. Fair shelter. UN/LOCODE: GB LYS. Region: ORKNEY ISLANDS."
  },
  {
    "id": "wpi-57810",
    "name": "Macau",
    "country": "Macau",
    "lat": 22.183333333333334,
    "lon": 113.56666666666666,
    "type": "commercial",
    "strategicTier": 2,
    "notes": "Coastal Breakwater. Good shelter. UN/LOCODE: MO MFM. Region: MACAU."
  },
  {
    "id": "wpi-38370",
    "name": "Malaga",
    "country": "Spain",
    "lat": 36.71666666666667,
    "lon": -4.416666666666667,
    "type": "commercial",
    "strategicTier": 2,
    "notes": "Coastal Breakwater. Good shelter. UN/LOCODE: ES AGP. Region: SPAIN SE COAST."
  },
  {
    "id": "wpi-55230",
    "name": "Manukau Harbor",
    "country": "New Zealand",
    "lat": -36.93333333333333,
    "lon": 174.78333333333333,
    "type": "commercial",
    "strategicTier": 2,
    "notes": "Canal. Good shelter. UN/LOCODE: NZ MCY. Region: NEW ZEALAND N ISLAND."
  },
  {
    "id": "wpi-15770",
    "name": "Manzanillo",
    "country": "Mexico",
    "lat": 19.05,
    "lon": -104.31666666666666,
    "type": "commercial",
    "strategicTier": 2,
    "notes": "Coastal Breakwater. Good shelter. UN/LOCODE: MX ZLO. Region: MEXICO WEST COAST."
  },
  {
    "id": "wpi-46870",
    "name": "Maputo",
    "country": "Mozambique",
    "lat": -25.962777777777777,
    "lon": 32.54472222222222,
    "type": "commercial",
    "strategicTier": 2,
    "notes": "Land Cutoff. Excellent shelter. UN/LOCODE: MZ MPM. Region: MOZAMBIQUE."
  },
  {
    "id": "wpi-60380",
    "name": "Masan",
    "country": "Korea, South",
    "lat": 35.18333333333333,
    "lon": 128.56666666666666,
    "type": "commercial",
    "strategicTier": 2,
    "notes": "Canal. Good shelter. UN/LOCODE: KR MAS. Region: SOUTH KOREA."
  },
  {
    "id": "wpi-15810",
    "name": "Mazatlan",
    "country": "Mexico",
    "lat": 23.2,
    "lon": -106.41666666666667,
    "type": "commercial",
    "strategicTier": 2,
    "notes": "River, Natural. Good shelter. UN/LOCODE: MX MZT. Region: MEXICO WEST COAST."
  },
  {
    "id": "wpi-50922",
    "name": "Merak Mas Terminal",
    "country": "Indonesia",
    "lat": -5.919166666666667,
    "lon": 105.99722222222222,
    "type": "oil-terminal",
    "strategicTier": 2,
    "notes": "Canal. Fair shelter. UN/LOCODE: ID MRK. Region: JAWA."
  },
  {
    "id": "wpi-44860",
    "name": "Mersin",
    "country": "Turkey",
    "lat": 36.8,
    "lon": 34.63333333333333,
    "type": "commercial",
    "strategicTier": 2,
    "notes": "Coastal Breakwater. Fair shelter. UN/LOCODE: TR MER. Region: TURKEY ASIA."
  },
  {
    "id": "wpi-40110",
    "name": "Milazzo",
    "country": "Italy",
    "lat": 38.21666666666667,
    "lon": 15.25,
    "type": "commercial",
    "strategicTier": 2,
    "notes": "Open Roadstead. Excellent shelter. UN/LOCODE: IT MLZ. Region: SICILIA."
  },
  {
    "id": "wpi-34880",
    "name": "Milford Haven",
    "country": "United Kingdom",
    "lat": 51.71666666666667,
    "lon": -5.033333333333333,
    "type": "commercial",
    "strategicTier": 2,
    "notes": "River, Natural. Fair shelter. UN/LOCODE: GB MLF. Region: WALES."
  },
  {
    "id": "wpi-4860",
    "name": "Milwaukee",
    "country": "United States",
    "lat": 43.03333333333333,
    "lon": -87.88333333333334,
    "type": "commercial",
    "strategicTier": 2,
    "notes": "River, Natural. Excellent shelter. UN/LOCODE: US MKE. Region: US LAKE MICHIGAN."
  },
  {
    "id": "wpi-48361",
    "name": "Mina Al Ahmadi",
    "country": "Kuwait",
    "lat": 29.066666666666666,
    "lon": 48.166666666666664,
    "type": "commercial",
    "strategicTier": 2,
    "notes": "Open Roadstead. Fair shelter. UN/LOCODE: KW MEA. Region: KUWAIT."
  },
  {
    "id": "wpi-48357",
    "name": "Mina Ash Shuaybah",
    "country": "Kuwait",
    "lat": 29.033333333333335,
    "lon": 48.166666666666664,
    "type": "commercial",
    "strategicTier": 2,
    "notes": "Open Roadstead. Fair shelter. UN/LOCODE: KW SAA. Region: KUWAIT."
  },
  {
    "id": "wpi-48325",
    "name": "Mina Salman",
    "country": "Bahrain",
    "lat": 26.2,
    "lon": 50.63333333333333,
    "type": "commercial",
    "strategicTier": 2,
    "notes": "Canal. Fair shelter. UN/LOCODE: BH MIN. Region: BAHRAIN."
  },
  {
    "id": "wpi-45330",
    "name": "Mina Tarabulus (Tripoli)",
    "country": "Libya",
    "lat": 32.9,
    "lon": 13.183333333333334,
    "type": "commercial",
    "strategicTier": 2,
    "notes": "Coastal Breakwater. Good shelter. UN/LOCODE: LY TIP. Region: LIBYA."
  },
  {
    "id": "wpi-61790",
    "name": "Miyazu",
    "country": "Japan",
    "lat": 35.53333333333333,
    "lon": 135.2,
    "type": "commercial",
    "strategicTier": 2,
    "notes": "Canal. Fair shelter. UN/LOCODE: JP MIY. Region: JAPAN."
  },
  {
    "id": "wpi-61595",
    "name": "Mizushima Ko",
    "country": "Japan",
    "lat": 34.5,
    "lon": 133.75,
    "type": "commercial",
    "strategicTier": 2,
    "notes": "Canal. Good shelter. UN/LOCODE: JP MIZ. Region: JAPAN."
  },
  {
    "id": "wpi-62140",
    "name": "Moji Ko",
    "country": "Japan",
    "lat": 33.95,
    "lon": 130.96666666666667,
    "type": "commercial",
    "strategicTier": 2,
    "notes": "River, Natural. Good shelter. UN/LOCODE: JP MOJ. Region: JAPAN."
  },
  {
    "id": "wpi-60340",
    "name": "Mokpo",
    "country": "Korea, South",
    "lat": 34.78333333333333,
    "lon": 126.38333333333334,
    "type": "commercial",
    "strategicTier": 2,
    "notes": "River, Natural. Good shelter. UN/LOCODE: KR MOK. Region: SOUTH KOREA."
  },
  {
    "id": "wpi-47100",
    "name": "Mombasa",
    "country": "Kenya",
    "lat": -4.066666666666666,
    "lon": 39.666666666666664,
    "type": "commercial",
    "strategicTier": 2,
    "notes": "Canal with Tide. Good shelter. UN/LOCODE: KE MBA. Region: KENYA."
  },
  {
    "id": "wpi-40790",
    "name": "Monfalcone",
    "country": "Italy",
    "lat": 45.78333333333333,
    "lon": 13.55,
    "type": "commercial",
    "strategicTier": 2,
    "notes": "Good shelter. UN/LOCODE: IT MNF. Region: ITALY EAST COAST."
  },
  {
    "id": "wpi-13120",
    "name": "Montevideo",
    "country": "Uruguay",
    "lat": -34.9,
    "lon": -56.21666666666667,
    "type": "commercial",
    "strategicTier": 2,
    "notes": "Coastal Breakwater. Good shelter. UN/LOCODE: UY MVD. Region: URUGUAY."
  },
  {
    "id": "wpi-36855",
    "name": "Montoir",
    "country": "France",
    "lat": 47.3,
    "lon": -2.1333333333333333,
    "type": "commercial",
    "strategicTier": 2,
    "notes": "River, Natural. Good shelter. UN/LOCODE: FR MTX. Region: FRANCE NW COAST CONT."
  },
  {
    "id": "wpi-46800",
    "name": "Mossel Bay",
    "country": "South Africa",
    "lat": -34.17472222222222,
    "lon": 22.14611111111111,
    "type": "commercial",
    "strategicTier": 2,
    "notes": "Coastal Breakwater. Good shelter. UN/LOCODE: ZA MZY. Region: SOUTH AFRICA."
  },
  {
    "id": "wpi-61170",
    "name": "Muroran Ko",
    "country": "Japan",
    "lat": 42.35,
    "lon": 140.96666666666667,
    "type": "commercial",
    "strategicTier": 2,
    "notes": "Canal. Good shelter. UN/LOCODE: JP MUR. Region: JAPAN."
  },
  {
    "id": "wpi-36900",
    "name": "Nantes",
    "country": "France",
    "lat": 47.2,
    "lon": -1.5666666666666667,
    "type": "commercial",
    "strategicTier": 2,
    "notes": "River, Natural. Fair shelter. UN/LOCODE: FR NTE. Region: FRANCE WEST COAST."
  },
  {
    "id": "wpi-44752",
    "name": "Nemrut Limani Bay",
    "country": "Turkey",
    "lat": 38.766666666666666,
    "lon": 26.916666666666668,
    "type": "commercial",
    "strategicTier": 2,
    "notes": "Coastal Breakwater. Poor shelter. UN/LOCODE: TR NEM. Region: TURKEY ASIA."
  },
  {
    "id": "wpi-18100",
    "name": "New Westminster",
    "country": "Canada",
    "lat": 49.2,
    "lon": -122.91666666666667,
    "type": "commercial",
    "strategicTier": 2,
    "notes": "River, Natural. Fair shelter. UN/LOCODE: CA NWE. Region: CANADA WEST COAST."
  },
  {
    "id": "wpi-7810",
    "name": "Newark",
    "country": "United States",
    "lat": 40.7,
    "lon": -74.15,
    "type": "commercial",
    "strategicTier": 2,
    "notes": "Good shelter. UN/LOCODE: US EWR. Region: UNITED STATES E COAST."
  },
  {
    "id": "wpi-35015",
    "name": "Newport",
    "country": "United Kingdom",
    "lat": 51.55,
    "lon": -2.9833333333333334,
    "type": "commercial",
    "strategicTier": 2,
    "notes": "Excellent shelter. UN/LOCODE: GB NPT. Region: WALES."
  },
  {
    "id": "wpi-8300",
    "name": "Newport News",
    "country": "United States",
    "lat": 36.96666666666667,
    "lon": -76.43333333333334,
    "type": "commercial",
    "strategicTier": 2,
    "notes": "Canal. Good shelter. UN/LOCODE: US NNS. Region: UNITED STATES E COAST."
  },
  {
    "id": "wpi-61870",
    "name": "Niigata Ko",
    "country": "Japan",
    "lat": 37.916666666666664,
    "lon": 139.05,
    "type": "commercial",
    "strategicTier": 2,
    "notes": "Fair shelter. UN/LOCODE: JP KIJ. Region: JAPAN."
  },
  {
    "id": "wpi-25190",
    "name": "Norrkoping",
    "country": "Sweden",
    "lat": 58.583333333333336,
    "lon": 16.2,
    "type": "commercial",
    "strategicTier": 2,
    "notes": "River, Natural. Good shelter. UN/LOCODE: SE NRK. Region: SWEDEN CONT."
  },
  {
    "id": "wpi-45812",
    "name": "Nouadhibou",
    "country": "Mauritania",
    "lat": 20.916666666666668,
    "lon": -17.05,
    "type": "commercial",
    "strategicTier": 2,
    "notes": "Canal. Good shelter. UN/LOCODE: MR NDB. Region: MAURITANIA."
  },
  {
    "id": "wpi-42340",
    "name": "Ormos Aliveriou",
    "country": "Greece",
    "lat": 38.38333333333333,
    "lon": 24.05,
    "type": "commercial",
    "strategicTier": 2,
    "notes": "Coastal Breakwater. Poor shelter. UN/LOCODE: GR LVR. Region: GREECE EAST COAST."
  },
  {
    "id": "wpi-61230",
    "name": "Otaru Ko",
    "country": "Japan",
    "lat": 43.2,
    "lon": 141.01666666666668,
    "type": "commercial",
    "strategicTier": 2,
    "notes": "Coastal Breakwater. Good shelter. UN/LOCODE: JP OTR. Region: JAPAN."
  },
  {
    "id": "wpi-50330",
    "name": "Palembang",
    "country": "Indonesia",
    "lat": -2.9833333333333334,
    "lon": 104.76666666666667,
    "type": "commercial",
    "strategicTier": 2,
    "notes": "River, Natural. Excellent shelter. UN/LOCODE: ID PLM. Region: INDONESIA."
  },
  {
    "id": "wpi-38630",
    "name": "Palma De Mallorca",
    "country": "Spain",
    "lat": 39.56666666666667,
    "lon": 2.6333333333333333,
    "type": "commercial",
    "strategicTier": 2,
    "notes": "Coastal Breakwater. Fair shelter. UN/LOCODE: ES PMI. Region: ISLAS BALEARES."
  },
  {
    "id": "wpi-32230",
    "name": "Peterhead",
    "country": "United Kingdom",
    "lat": 57.5,
    "lon": -1.7833333333333332,
    "type": "commercial",
    "strategicTier": 2,
    "notes": "Coastal Breakwater. Good shelter. UN/LOCODE: GB PHD. Region: SCOTLAND EAST COAST."
  },
  {
    "id": "wpi-11270",
    "name": "Playa De Guayanilla",
    "country": "Puerto Rico",
    "lat": 18.016666666666666,
    "lon": -66.76666666666667,
    "type": "commercial",
    "strategicTier": 2,
    "notes": "Coastal Breakwater. Fair shelter. UN/LOCODE: PR GUY. Region: PUERTO RICO."
  },
  {
    "id": "wpi-11260",
    "name": "Playa De Ponce",
    "country": "Puerto Rico",
    "lat": 17.983333333333334,
    "lon": -66.61666666666666,
    "type": "commercial",
    "strategicTier": 2,
    "notes": "Coastal Breakwater. Fair shelter. UN/LOCODE: PR PSE. Region: PUERTO RICO."
  },
  {
    "id": "wpi-35370",
    "name": "Plymouth",
    "country": "United Kingdom",
    "lat": 50.36666666666667,
    "lon": -4.15,
    "type": "commercial",
    "strategicTier": 2,
    "notes": "Canal. Excellent shelter. UN/LOCODE: GB PLY. Region: ENGLAND SOUTH COAST."
  },
  {
    "id": "wpi-11450",
    "name": "Pointe A Pitre",
    "country": "Guadeloupe",
    "lat": 16.233333333333334,
    "lon": -61.53333333333333,
    "type": "commercial",
    "strategicTier": 2,
    "notes": "Canal. Good shelter. UN/LOCODE: GP PTP. Region: GUADELOUPE."
  },
  {
    "id": "wpi-54220",
    "name": "Port Adelaide",
    "country": "Australia",
    "lat": -34.85,
    "lon": 138.5,
    "type": "commercial",
    "strategicTier": 2,
    "notes": "River, Natural. Excellent shelter. UN/LOCODE: AU PAE. Region: AUSTRALIA."
  },
  {
    "id": "wpi-9080",
    "name": "Port Arthur",
    "country": "United States",
    "lat": 29.833333333333332,
    "lon": -93.96666666666667,
    "type": "commercial",
    "strategicTier": 2,
    "notes": "Land Cutoff. Good shelter. UN/LOCODE: US POA. Region: US GULF COAST."
  },
  {
    "id": "wpi-54940",
    "name": "Port Dalrymple",
    "country": "Australia",
    "lat": -41.13333333333333,
    "lon": 146.83333333333334,
    "type": "commercial",
    "strategicTier": 2,
    "notes": "Canal. Good shelter. UN/LOCODE: AU PTD. Region: TASMANIA."
  },
  {
    "id": "wpi-12770",
    "name": "Port De Salvador",
    "country": "Brazil",
    "lat": -12.966666666666667,
    "lon": -38.516666666666666,
    "type": "commercial",
    "strategicTier": 2,
    "notes": "Coastal Breakwater. Good shelter. UN/LOCODE: BR SSA. Region: BRAZIL SE COAST."
  },
  {
    "id": "wpi-49960",
    "name": "Port Dickson",
    "country": "Malaysia",
    "lat": 2.533333333333333,
    "lon": 101.78333333333333,
    "type": "commercial",
    "strategicTier": 2,
    "notes": "Open Roadstead. Fair shelter. UN/LOCODE: MY PDI. Region: MALAYSIA."
  },
  {
    "id": "wpi-46820",
    "name": "Port Elizabeth",
    "country": "South Africa",
    "lat": -33.95194444444445,
    "lon": 25.6425,
    "type": "commercial",
    "strategicTier": 2,
    "notes": "Coastal Breakwater. Fair shelter. UN/LOCODE: ZA PLZ. Region: SOUTH AFRICA."
  },
  {
    "id": "wpi-8630",
    "name": "Port Everglades",
    "country": "United States",
    "lat": 26.1,
    "lon": -80.11666666666666,
    "type": "commercial",
    "strategicTier": 2,
    "notes": "Canal. Excellent shelter. UN/LOCODE: US PEF. Region: UNITED STATES E COAST."
  },
  {
    "id": "wpi-46440",
    "name": "Port Gentil",
    "country": "Gabon",
    "lat": -0.7,
    "lon": 8.8,
    "type": "commercial",
    "strategicTier": 2,
    "notes": "Canal. Excellent shelter. UN/LOCODE: GA POG. Region: GABON."
  },
  {
    "id": "wpi-28715",
    "name": "Port Polnochny",
    "country": "Poland",
    "lat": 54.4,
    "lon": 18.716666666666665,
    "type": "commercial",
    "strategicTier": 2,
    "notes": "Coastal Breakwater. Fair shelter. Region: POLAND."
  },
  {
    "id": "wpi-7150",
    "name": "Portland",
    "country": "United States",
    "lat": 43.666666666666664,
    "lon": -70.25,
    "type": "commercial",
    "strategicTier": 2,
    "notes": "Canal. Excellent shelter. UN/LOCODE: US PWM. Region: UNITED STATES E COAST."
  },
  {
    "id": "wpi-35450",
    "name": "Portland Harbour",
    "country": "United Kingdom",
    "lat": 50.583333333333336,
    "lon": -2.4333333333333336,
    "type": "commercial",
    "strategicTier": 2,
    "notes": "Coastal Breakwater. Fair shelter. UN/LOCODE: GB PRH. Region: ENGLAND SOUTH COAST."
  },
  {
    "id": "wpi-13080",
    "name": "Porto Alegre",
    "country": "Brazil",
    "lat": -30.033333333333335,
    "lon": -51.233333333333334,
    "type": "commercial",
    "strategicTier": 2,
    "notes": "River, Natural. Excellent shelter. UN/LOCODE: BR POA. Region: BRAZIL SE COAST."
  },
  {
    "id": "wpi-40720",
    "name": "Porto Di Corsini",
    "country": "Italy",
    "lat": 44.495,
    "lon": 12.291,
    "type": "commercial",
    "strategicTier": 2,
    "notes": "Land Cutoff. Good shelter. UN/LOCODE: IT PCS. Region: ITALY EAST COAST."
  },
  {
    "id": "wpi-35600",
    "name": "Portsmouth Harbour",
    "country": "United Kingdom",
    "lat": 50.8,
    "lon": -1.1,
    "type": "commercial",
    "strategicTier": 2,
    "notes": "Canal with Tide. Excellent shelter. UN/LOCODE: GB ME\". Region: ENGLAND SOUTH COAST."
  },
  {
    "id": "wpi-18950",
    "name": "Prince Rupert",
    "country": "Canada",
    "lat": 54.31666666666667,
    "lon": -130.33333333333334,
    "type": "commercial",
    "strategicTier": 2,
    "notes": "Canal. Good shelter. UN/LOCODE: CA PRR. Region: CANADA WEST COAST."
  },
  {
    "id": "wpi-7420",
    "name": "Providence",
    "country": "United States",
    "lat": 41.8,
    "lon": -71.4,
    "type": "commercial",
    "strategicTier": 2,
    "notes": "River, Natural. Good shelter. UN/LOCODE: US PVD. Region: UNITED STATES E COAST."
  },
  {
    "id": "wpi-37400",
    "name": "Puerto De Bilbao",
    "country": "Spain",
    "lat": 43.35,
    "lon": -3.05,
    "type": "commercial",
    "strategicTier": 2,
    "notes": "Coastal Breakwater. Excellent shelter. UN/LOCODE: ES BIO. Region: SPAIN N COAST."
  },
  {
    "id": "wpi-37290",
    "name": "Puerto De Pasajes",
    "country": "Spain",
    "lat": 43.333333333333336,
    "lon": -1.9333333333333333,
    "type": "commercial",
    "strategicTier": 2,
    "notes": "River, Natural. Fair shelter. UN/LOCODE: ES PAS. Region: SPAIN N COAST."
  },
  {
    "id": "wpi-14950",
    "name": "Puerto Del Callao",
    "country": "Peru",
    "lat": -12.05,
    "lon": -77.15,
    "type": "commercial",
    "strategicTier": 2,
    "notes": "Coastal Breakwater. Good shelter. UN/LOCODE: PE CLL. Region: PERU."
  },
  {
    "id": "wpi-50010",
    "name": "Pulau Bukom",
    "country": "Singapore",
    "lat": 1.2333333333333334,
    "lon": 103.76666666666667,
    "type": "commercial",
    "strategicTier": 2,
    "notes": "Open Roadstead. Good shelter. UN/LOCODE: SG PUB. Region: SINGAPORE."
  },
  {
    "id": "wpi-49850",
    "name": "Pulau Pinang",
    "country": "Malaysia",
    "lat": 5.416666666666667,
    "lon": 100.35,
    "type": "commercial",
    "strategicTier": 2,
    "notes": "Canal. Good shelter. UN/LOCODE: MY PEN. Region: MALAYSIA."
  },
  {
    "id": "wpi-60325",
    "name": "Pyeongtaek Hang",
    "country": "Korea, South",
    "lat": 37,
    "lon": 126.8,
    "type": "commercial",
    "strategicTier": 2,
    "notes": "River, Natural. Fair shelter. UN/LOCODE: KR PTK. Region: SOUTH KOREA."
  },
  {
    "id": "wpi-60200",
    "name": "Qinhuangdao",
    "country": "China",
    "lat": 39.93333333333333,
    "lon": 119.61666666666666,
    "type": "commercial",
    "strategicTier": 2,
    "notes": "Coastal Breakwater. Fair shelter. UN/LOCODE: CN SHP. Region: CHINA CONTINUED."
  },
  {
    "id": "wpi-2180",
    "name": "Quebec",
    "country": "Canada",
    "lat": 46.81666666666667,
    "lon": -71.21666666666667,
    "type": "commercial",
    "strategicTier": 2,
    "notes": "River, Natural. Good shelter. UN/LOCODE: CA QUE. Region: CANADA ST LAWRENCE R."
  },
  {
    "id": "wpi-39420",
    "name": "Rada Di Vado",
    "country": "Italy",
    "lat": 44.265,
    "lon": 8.453,
    "type": "commercial",
    "strategicTier": 2,
    "notes": "Open Roadstead. Good shelter. UN/LOCODE: IT VDL. Region: ITALY WEST COAST."
  },
  {
    "id": "wpi-48340",
    "name": "Ras  Tannurah",
    "country": "Saudi Arabia",
    "lat": 26.633333333333333,
    "lon": 50.166666666666664,
    "type": "commercial",
    "strategicTier": 2,
    "notes": "Open Roadstead. Fair shelter. UN/LOCODE: SA RTA. Region: SAUDI ARABIA CONTINUED."
  },
  {
    "id": "wpi-48297",
    "name": "Ras Laffan",
    "country": "Qatar",
    "lat": 25.916666666666668,
    "lon": 51.583333333333336,
    "type": "commercial",
    "strategicTier": 2,
    "notes": "Coastal Breakwater. Good shelter. UN/LOCODE: QA RLF. Region: QATAR."
  },
  {
    "id": "wpi-48015",
    "name": "Ras Shukhier",
    "country": "Egypt",
    "lat": 28.133333333333333,
    "lon": 33.28333333333333,
    "type": "commercial",
    "strategicTier": 2,
    "notes": "Open Roadstead. Fair shelter. UN/LOCODE: EG RSH. Region: EGYPT RED SEA."
  },
  {
    "id": "wpi-12730",
    "name": "Recife",
    "country": "Brazil",
    "lat": -8.05,
    "lon": -34.86666666666667,
    "type": "commercial",
    "strategicTier": 2,
    "notes": "Coastal Breakwater. Fair shelter. UN/LOCODE: BR REC. Region: BRAZIL SE COAST."
  },
  {
    "id": "wpi-46855",
    "name": "Richards Bay",
    "country": "South Africa",
    "lat": -28.810000000000002,
    "lon": 32.098333333333336,
    "type": "commercial",
    "strategicTier": 2,
    "notes": "Coastal Breakwater. Fair shelter. UN/LOCODE: ZA RCB. Region: SOUTH AFRICA."
  },
  {
    "id": "wpi-37040",
    "name": "Rochefort",
    "country": "France",
    "lat": 45.93333333333333,
    "lon": -0.95,
    "type": "commercial",
    "strategicTier": 2,
    "notes": "Excellent shelter. UN/LOCODE: FR RCO. Region: FRANCE WEST COAST."
  },
  {
    "id": "wpi-13630",
    "name": "Rosario",
    "country": "Argentina",
    "lat": -32.95,
    "lon": -60.63333333333333,
    "type": "commercial",
    "strategicTier": 2,
    "notes": "River, Natural. Excellent shelter. UN/LOCODE: AR ROS. Region: ARGENTINA."
  },
  {
    "id": "wpi-61547",
    "name": "Sakai-Senboku",
    "country": "Japan",
    "lat": 34.55,
    "lon": 135.43333333333334,
    "type": "commercial",
    "strategicTier": 2,
    "notes": "Coastal Breakwater. Good shelter. UN/LOCODE: JP SBK. Region: JAPAN."
  },
  {
    "id": "wpi-46750",
    "name": "Saldanha Bay",
    "country": "South Africa",
    "lat": -33.03333333333333,
    "lon": 17.966666666666665,
    "type": "commercial",
    "strategicTier": 2,
    "notes": "Coastal Breakwater. Fair shelter. UN/LOCODE: ZA SDB. Region: SOUTH AFRICA."
  },
  {
    "id": "wpi-16010",
    "name": "San Diego",
    "country": "United States",
    "lat": 32.71666666666667,
    "lon": -117.18333333333334,
    "type": "commercial",
    "strategicTier": 2,
    "notes": "Canal. Excellent shelter. UN/LOCODE: US SAN. Region: UNITED STATES W COAST."
  },
  {
    "id": "wpi-58460",
    "name": "San Fernando Harbor",
    "country": "Philippines",
    "lat": 16.616666666666667,
    "lon": 120.31666666666666,
    "type": "commercial",
    "strategicTier": 2,
    "notes": "Open Roadstead. Fair shelter. UN/LOCODE: PH SFE. Region: PHILIPPINE ISLANDS."
  },
  {
    "id": "wpi-38160",
    "name": "Santa Cruz De Tenerife",
    "country": "Spain",
    "lat": 28.466666666666665,
    "lon": -16.233333333333334,
    "type": "commercial",
    "strategicTier": 2,
    "notes": "Coastal Breakwater. Good shelter. UN/LOCODE: ES SCT. Region: ISLAS CANARIAS."
  },
  {
    "id": "wpi-37470",
    "name": "Santander",
    "country": "Spain",
    "lat": 43.46666666666667,
    "lon": -3.783333333333333,
    "type": "commercial",
    "strategicTier": 2,
    "notes": "River, Natural. Good shelter. UN/LOCODE: ES SDR. Region: SPAIN N COAST."
  },
  {
    "id": "wpi-39215",
    "name": "Sarroch Oil Terminal",
    "country": "Italy",
    "lat": 39.083333333333336,
    "lon": 9.033333333333333,
    "type": "oil-terminal",
    "strategicTier": 2,
    "notes": "Open Roadstead. Excellent shelter. UN/LOCODE: IT PFX. Region: SARDEGNA."
  },
  {
    "id": "wpi-62380",
    "name": "Sasebo",
    "country": "Japan",
    "lat": 33.166666666666664,
    "lon": 129.71666666666667,
    "type": "commercial",
    "strategicTier": 2,
    "notes": "Canal. Good shelter. UN/LOCODE: JP SSB. Region: JAPAN."
  },
  {
    "id": "wpi-57446",
    "name": "Sattahip",
    "country": "Thailand",
    "lat": 12.616666666666667,
    "lon": 100.91666666666667,
    "type": "commercial",
    "strategicTier": 2,
    "notes": "Coastal Breakwater. Poor shelter. UN/LOCODE: TH SAT. Region: THAILAND."
  },
  {
    "id": "wpi-8530",
    "name": "Savannah",
    "country": "United States",
    "lat": 32.083333333333336,
    "lon": -81.08333333333333,
    "type": "commercial",
    "strategicTier": 2,
    "notes": "River, Natural. Good shelter. UN/LOCODE: US SAV. Region: UNITED STATES E COAST."
  },
  {
    "id": "wpi-1955",
    "name": "Sept Iles",
    "country": "Canada",
    "lat": 50.2,
    "lon": -66.38333333333334,
    "type": "commercial",
    "strategicTier": 2,
    "notes": "River, Natural. Good shelter. UN/LOCODE: CA SEI. Region: CANADA ST LAWRENCE R."
  },
  {
    "id": "wpi-38270",
    "name": "Sevilla",
    "country": "Spain",
    "lat": 37.36666666666667,
    "lon": -6,
    "type": "commercial",
    "strategicTier": 2,
    "notes": "Land Cutoff. Good shelter. UN/LOCODE: ES SVQ. Region: SPAIN SW COAST."
  },
  {
    "id": "wpi-57777",
    "name": "Shekou",
    "country": "China",
    "lat": 22.466666666666665,
    "lon": 113.86666666666666,
    "type": "commercial",
    "strategicTier": 2,
    "notes": "Canal. Good shelter. UN/LOCODE: CN SHK. Region: CHINA."
  },
  {
    "id": "wpi-57458",
    "name": "Si Racha",
    "country": "Thailand",
    "lat": 13.166666666666666,
    "lon": 100.91666666666667,
    "type": "commercial",
    "strategicTier": 2,
    "notes": "Open Roadstead. Fair shelter. UN/LOCODE: TH SRI. Region: THAILAND."
  },
  {
    "id": "wpi-38005",
    "name": "Sines",
    "country": "Portugal",
    "lat": 37.95,
    "lon": -8.866666666666667,
    "type": "commercial",
    "strategicTier": 2,
    "notes": "Coastal Breakwater. Good shelter. UN/LOCODE: PT SIE. Region: PORTUGAL."
  },
  {
    "id": "wpi-48320",
    "name": "Sitrah",
    "country": "Bahrain",
    "lat": 26.166666666666668,
    "lon": 50.666666666666664,
    "type": "commercial",
    "strategicTier": 2,
    "notes": "Open Roadstead. Fair shelter. UN/LOCODE: BH SIT. Region: BAHRAIN."
  },
  {
    "id": "wpi-43100",
    "name": "Soudha",
    "country": "Greece",
    "lat": 35.483333333333334,
    "lon": 24.183333333333334,
    "type": "commercial",
    "strategicTier": 2,
    "notes": "Canal. Good shelter. UN/LOCODE: GR SDH. Region: KRITI."
  },