[
  { "id": "p001", "name": "Port of Singapore", "country": "Singapore", "lat": 1.26, "lon": 103.82, "type": "commercial", "strategicTier": 1, "throughput": 37000000, "notes": "World's second-busiest port by container volume. Critical transshipment hub for Asia-Europe and Asia-Americas routes." },
  { "id": "p002", "name": "Port of Shanghai", "country": "China", "lat": 31.35, "lon": 121.70, "type": "commercial", "strategicTier": 1, "throughput": 47000000, "notes": "World's busiest container port. Yangtze River delta hub, vital to Chinese export manufacturing." },
  { "id": "p003", "name": "Port of Rotterdam", "country": "Netherlands", "lat": 51.92, "lon": 4.48, "type": "commercial", "strategicTier": 1, "throughput": 15000000, "notes": "Europe's largest port. Gateway for European imports; major crude oil and LNG terminal." },
  { "id": "p004", "name": "Jeddah Islamic Port", "country": "Saudi Arabia", "lat": 21.48, "lon": 39.17, "type": "mixed", "strategicTier": 1, "throughput": 8200000, "notes": "Primary Saudi Red Sea port. Handles 60% of Kingdom's imports. Adjacent to RSAF air base." },
  { "id": "p005", "name": "Port of Kaohsiung", "country": "Taiwan", "lat": 22.60, "lon": 120.27, "type": "commercial", "strategicTier": 1, "throughput": 10000000, "notes": "Taiwan's primary deep-water container port. Strategically located near Taiwan Strait chokepoint." },
  { "id": "p006", "name": "Port of Hong Kong", "country": "China", "lat": 22.28, "lon": 114.18, "type": "commercial", "strategicTier": 1, "throughput": 18000000, "notes": "Major transshipment hub for South China. PLA Navy has berthing rights at Stonecutters Island." },
  { "id": "p007", "name": "Port of Jebel Ali", "country": "UAE", "lat": 25.01, "lon": 55.09, "type": "commercial", "strategicTier": 1, "throughput": 14500000, "notes": "Largest port in Middle East. US Navy's largest overseas port call outside CONUS. DP World operated." },
  { "id": "p008", "name": "Port Said", "country": "Egypt", "lat": 31.25, "lon": 32.28, "type": "commercial", "strategicTier": 1, "throughput": 5100000, "notes": "Northern entrance to Suez Canal. Convoy staging point for northbound and southbound transits." },
  { "id": "p009", "name": "Diego Garcia (NSF)", "country": "British Indian Ocean Territory", "lat": -7.31, "lon": 72.41, "type": "military", "strategicTier": 1, "notes": "US/UK joint naval support facility. Hosts B-52 bombers, P-8 Poseidons, pre-positioned logistics ships." },
  { "id": "p010", "name": "Naval Station Rota", "country": "Spain", "lat": 36.64, "lon": -6.33, "type": "military", "strategicTier": 1, "notes": "US Navy EUCOM forward base. Home to DDG destroyers. Key NATO Atlantic/Med hub." },
  { "id": "p011", "name": "Fleet Activities Yokosuka", "country": "Japan", "lat": 35.28, "lon": 139.67, "type": "military", "strategicTier": 1, "notes": "US 7th Fleet forward HQ. USS Ronald Reagan homeport. Critical for Taiwan Strait deterrence." },
  { "id": "p012", "name": "Bandar Abbas", "country": "Iran", "lat": 27.19, "lon": 56.27, "type": "mixed", "strategicTier": 1, "throughput": 2800000, "notes": "Iran's largest port. IRIN headquarters. Controls approaches to Strait of Hormuz." },
  { "id": "p013", "name": "Port of Djibouti", "country": "Djibouti", "lat": 11.59, "lon": 43.14, "type": "commercial", "strategicTier": 2, "throughput": 1200000, "notes": "Hosts US CJTF-HOA, French, Japanese, and Chinese military facilities. Red Sea/Gulf of Aden junction." },
  { "id": "p014", "name": "PLA Navy Base Djibouti", "country": "Djibouti", "lat": 11.56, "lon": 43.11, "type": "military", "strategicTier": 2, "notes": "China's first overseas military base. Berthing for PLAN vessels, logistics support hub." },
  { "id": "p015", "name": "Port of Colombo", "country": "Sri Lanka", "lat": 6.93, "lon": 79.85, "type": "commercial", "strategicTier": 2, "throughput": 7200000, "notes": "South Asian transshipment hub. Hambantota port leased to China (99 years). BRI strategic node." },
  { "id": "p016", "name": "Port Klang", "country": "Malaysia", "lat": 3.00, "lon": 101.38, "type": "commercial", "strategicTier": 2, "throughput": 13500000, "notes": "Malaysia's main port. 12th busiest globally. Sits at northern end of Malacca Strait." },
  { "id": "p017", "name": "Port of Piraeus", "country": "Greece", "lat": 37.94, "lon": 23.63, "type": "commercial", "strategicTier": 2, "throughput": 5200000, "notes": "COSCO-owned since 2016. China's primary European entry point for BRI cargo." },
  { "id": "p018", "name": "Colon Free Zone", "country": "Panama", "lat": 9.37, "lon": -79.91, "type": "commercial", "strategicTier": 2, "throughput": 4800000, "notes": "Atlantic entrance to Panama Canal. Largest free trade zone in Western Hemisphere." },
  { "id": "p019", "name": "Shuaiba Oil Terminal", "country": "Kuwait", "lat": 29.02, "lon": 48.17, "type": "oil-terminal", "strategicTier": 2, "throughput": 3500000, "notes": "Kuwait's primary oil export terminal. Capacity ~1.7M bpd. Vulnerable to Hormuz closure." },
  { "id": "p020", "name": "Ras Tanura", "country": "Saudi Arabia", "lat": 26.65, "lon": 50.17, "type": "oil-terminal", "strategicTier": 1, "throughput": 0, "notes": "Saudi Aramco's largest oil export facility. ~7% of global oil supply transits here. Highest-value target in global energy infrastructure." }
]
